Service;Subservice;Area Of Service ;Provinsi;Kab/Kota (Edit);Clnt Id;Clnt Name;Appl Id;Request Reference;Status Simf;Channel;Freq;Freq_Pair;Bwidth;Erp Pwr Dbm;Curr Lic Num;Site Id;Stn Name;Stn Addr;Sid Lat;Sid Long;License Date ;Validity Date ;Ap Id;Tcs Id;Efl Id;Stasiun Lawan;Kab/Kota;NAMA UNIT PELAKSANA TEKNIS;BAND;15 Pita
Land Mobile (private);Standard;DESA KADOLE KEC. LAMBITU, BIMA, LAMBITU, NUSA TENGGARA BARAT;NUSA TENGGARA BARAT;BIMA;00115364;SATUAN POLISI PAMONG PRAJA KABUPATEN BIMA;038810102019;0774612;Granted;;350.025;355.025;16;36.0206;02156191-000SU/0620192024;0002;HT.01 - 40 BERGERAK DISEKITAR KECAMATAN WOHA;DESA KADOLE KEC. LAMBITU;-8.54416667;118.81138889;08/10/2019;07/10/2029;;;;;BIMA;Balai Monitor SFR Kelas II Mataram;UHF;5. Tetap, Bergerak, Marabahaya (300 – 430 MHz)
Land Mobile (private);Standard;JALAN SUMBAWA, BELO, PALIBELO, BELO, PALIBELO, BIMA, NUSA TENGGARA BAR. 84173, BIMA, PALIBELO, NUSA TENGGARA BARAT;NUSA TENGGARA BARAT;BIMA;00103277;LION MENTARI AIRLINES, PT.;033737112019;0823200;Granted;;152.775;152.775;16;36.9897;02216636-000SU/0620192024;0002;HT.02-04 BERGERAK SEKITAR BANDARA SULTAN SALAHUDIN;JALAN SUMBAWA, BELO, PALIBELO, BELO, PALIBELO, BIMA, NUSA TENGGARA BAR. 84173;-8.53972222;118.68722222;28/11/2019;27/11/2029;;;;;BIMA;Balai Monitor SFR Kelas II Mataram;VHF;3. Komrat VHF, Instanssi Pemerintah/Badan Usaha Keperluan Publik, Maritim VHF (137 - 174 MHz)
Land Mobile (private);Standard;JALAN LINTAS BIMA - SUMBAWA DESA BOLO KECAMATAN MADAPANGGA - BIMA,BIMA,MADAPANGGA,NUSA TENGGARA BARAT;NUSA TENGGARA BARAT;BIMA;00118843;SANTOSA UTAMA LESTARI, PT.;034350102023;2830817;Granted;;150.1;150.1;16;36.9897;02762130-000SU/2620232028;0001;HT. 01 BERGERAK DISEKITAR DESA BOLO KECAMATAN MADAPANGGA;JALAN LINTAS BIMA - SUMBAWA DESA BOLO KECAMATAN MADAPANGGA - BIMA;-8.50608333;118.57336111;19/10/2023;17/10/2028;;;;;BIMA;Balai Monitor SFR Kelas II Mataram;VHF;3. Komrat VHF, Instanssi Pemerintah/Badan Usaha Keperluan Publik, Maritim VHF (137 - 174 MHz)
Aeronautical;Ground-To-Air;Kantor Cabang Pembantu Bima, BANDARA SULTAN M SALAHUDDIN,BIMA,PALIBELO,NUSA TENGGARA BARAT;NUSA TENGGARA BARAT;BIMA;00112440;PERUM LPPNPI CABANG LOMBOK;00229072023;485/DU/SDPPI/2023;Granted;;120.3;;0;34.8397;;0001;VHF ADC PORTABLE;Kantor Cabang Pembantu Bima, BANDARA SULTAN M SALAHUDDIN;-8.53972222;118.69027778;18/07/2023;17/07/2028;;;;;BIMA;Balai Monitor SFR Kelas II Mataram;VHF;2. Penerbangan VHF (108 – 137 MHz)
Land Mobile (private);Standard;JALAN RAYA TELKOM DORONAE KECAMATAN LAMBITU, BIMA, LAMBITU, NUSA TENGGARA BARAT;NUSA TENGGARA BARAT;BIMA;00116649;DINAS KOMUNIKASI DAN INFORMATIKA KOTA BIMA;039340072020;0934508;Granted;;163.075;168.075;16;36.9897;02316152-000SU/0620202025;0003;HT. 01-40 BERGERAK DISEKITAR KELURAHAN PENATOI;JALAN RAYA TELKOM DORONAE KECAMATAN LAMBITU;-8.54358333;118.81113889;06/08/2020;05/08/2025;;;;;BIMA;Balai Monitor SFR Kelas II Mataram;VHF;3. Komrat VHF, Instanssi Pemerintah/Badan Usaha Keperluan Publik, Maritim VHF (137 - 174 MHz)
Land Mobile (private);Standard;JALAN LINTAS SUMBAWA - BIMA KELURAHAN BELO, BIMA, PALIBELO, NUSA TENGGARA BARAT;NUSA TENGGARA BARAT;BIMA;00115397;MERPATI ANGKASA ABADI, PT.;031042102019;0792285;Granted;;160.05;160.05;16;36.9897;02176279-000SU/0620192024;0001;HT. 01 BERGERAK SEKITAR JL. LINTAS SUMBAWA - BIMA KEL. BELO;JALAN LINTAS SUMBAWA - BIMA KELURAHAN BELO;-8.54130556;118.69277778;31/10/2019;30/10/2029;;;;;BIMA;Balai Monitor SFR Kelas II Mataram;VHF;3. Komrat VHF, Instanssi Pemerintah/Badan Usaha Keperluan Publik, Maritim VHF (137 - 174 MHz)
Land Mobile (private);Standard;BUKIT DORONAE-LAMBU, BIMA, LAMBITU, NUSA TENGGARA BARAT;NUSA TENGGARA BARAT;BIMA;00103494;PLN (PERSERO), PT.;034369122019;0826863;Granted;;352.05;357.05;16;36.9897;02220816-000SU/0620192024;0007;HT. 21 - 31 BERGERAK SEKITAR REP. SITE ULP BIMA KT;BUKIT DORONAE-LAMBU;-8.54429722;118.811325;08/12/2019;07/12/2029;;;;;BIMA;Balai Monitor SFR Kelas II Mataram;UHF;5. Tetap, Bergerak, Marabahaya (300 – 430 MHz)
Land Mobile (private);Standard;BUKIT DORONAE-LAMBU, WAWO, BIMA, NTB, BIMA, LAMBITU, NUSA TENGGARA BARAT;NUSA TENGGARA BARAT;BIMA;00103494;PLN (PERSERO), PT.;031738072019;0743107;Granted;;359.55;364.55;16;38.9897;02136988-000SU/0620192024;0004;MU. 01 - 07  BERGERAK SEKITAR JLN. SOEKARNO-HATTA;BUKIT DORONAE-LAMBU, WAWO, BIMA, NTB;-8.54429722;118.811325;30/08/2019;29/08/2029;;;;;BIMA;Balai Monitor SFR Kelas II Mataram;UHF;5. Tetap, Bergerak, Marabahaya (300 – 430 MHz)
Land Mobile (private);Standard;JALAN LINTAS BIMA SAPE, BIMA, LAMBITU, NUSA TENGGARA BARAT;NUSA TENGGARA BARAT;BIMA;00115018;DINAS KOMUNIKASI INFORMASI DAN STATISTIK BIMA;033452082019;0733561;Granted;;161.175;166.175;16;38.9897;02126854-000SU/0620192024;0003;MU. 01 - 02 BERGERAK DISEKITAR JALAN LINTAS BIMA SAPE;JALAN LINTAS BIMA SAPE;-8.54416667;118.81138889;06/08/2019;05/08/2029;;;;;BIMA;Balai Monitor SFR Kelas II Mataram;VHF;3. Komrat VHF, Instanssi Pemerintah/Badan Usaha Keperluan Publik, Maritim VHF (137 - 174 MHz)
Land Mobile (private);Standard;BUKIT DORONAE DESA LAMBITU, BIMA, LAMBITU, NUSA TENGGARA BARAT;NUSA TENGGARA BARAT;BIMA;00111851;BADAN PENANGGULANGAN BENCANA DAERAH PEMERINTAH KOTA BIMA;032298092017;0496876;Granted;;164.775;169.775;16;36.9897;01963172-000SU/0620172022;0005;HT.27 -39 BERGERAK SEKITAR WILAYAH TENGAH KOTA BIMA;BUKIT DORONAE DESA LAMBITU;-8.54441667;118.81101667;09/10/2017;07/10/2027;;;;;BIMA;Balai Monitor SFR Kelas II Mataram;VHF;3. Komrat VHF, Instanssi Pemerintah/Badan Usaha Keperluan Publik, Maritim VHF (137 - 174 MHz)
Land Mobile (private);Standard;JL. YOS SUDARSO, PELABUHAN PENYEBERANGAN SAPE, BIMA, SAPE, NUSA TENGGARA BARAT;NUSA TENGGARA BARAT;BIMA;00111838;ASDP INDONESIA FERRY CABANG SAPE, PT.;031947092017;0489585;Granted;;172.05;172.05;16;36.9897;01959587-000SU/0620172022;0001;HT.1 ASDP SAPE;JL. YOS SUDARSO, PELABUHAN PENYEBERANGAN SAPE;-8.57388889;119.02083333;22/09/2017;20/09/2027;;;;;BIMA;Balai Monitor SFR Kelas II Mataram;VHF;3. Komrat VHF, Instanssi Pemerintah/Badan Usaha Keperluan Publik, Maritim VHF (137 - 174 MHz)
Land Mobile (private);Standard;JL. SULTAN SALAHUDDIN NO.22, BIMA, PALIBELO, NUSA TENGGARA BARAT;NUSA TENGGARA BARAT;BIMA;2602;DIREKTORAT JENDERAL BEA DAN CUKAI;031216072021;1132012;Granted;;367.1;362.1;16;48.62219;02463651-000SU/2620212026;0001;BS-2. KPPBC TMP C SUMBAWA;JL. SULTAN SALAHUDDIN NO.22;-8.54105278;118.69128056;03/07/2021;02/07/2026;;;;;BIMA;Balai Monitor SFR Kelas II Mataram;UHF;5. Tetap, Bergerak, Marabahaya (300 – 430 MHz)
Land Mobile (private);Standard;JALAN SOEKARNO HATTA NO. 1 KOMPLEK KANTOR BUPATI BIMA KECAMATAN WOHA,BIMA,WOHA,NUSA TENGGARA BARAT;NUSA TENGGARA BARAT;BIMA;00114905;BADAN PENANGGULANGAN BENCANA DAERAH PEMERINTAH KABUPATEN BIMA;030230022024;3066029;Granted;;165.9;161.05;16;45.9794;02829898-000SU/2620242029;0001;BS BPBD KABUPATEN BIMA;JALAN SOEKARNO HATTA NO. 1 KOMPLEK KANTOR BUPATI BIMA KECAMATAN WOHA;-8.56481667;118.67222222;27/02/2024;25/02/2029;;;;;BIMA;Balai Monitor SFR Kelas II Mataram;VHF;3. Komrat VHF, Instanssi Pemerintah/Badan Usaha Keperluan Publik, Maritim VHF (137 - 174 MHz)
Land Mobile (private);Standard;BUKIT DORONAE,BIMA,LAMBITU,NUSA TENGGARA BARAT,KA'OWA;NUSA TENGGARA BARAT;BIMA;00103494;PLN (PERSERO), PT.;039917102024;3568660;Granted;;351.7;356.7;16;45.9794;02932622-000SU/2620242029;0001;BS ULP BIMA KOTA (19);BUKIT DORONAE;-8.54388889;118.81166667;11/11/2024;10/11/2029;;;;;BIMA;Balai Monitor SFR Kelas II Mataram;UHF;5. Tetap, Bergerak, Marabahaya (300 – 430 MHz)
Land Mobile (private);Standard;JL. SULTAN MUHAMMAD SALAHUDDIN, BIMA, PALIBELO, NUSA TENGGARA BARAT;NUSA TENGGARA BARAT;BIMA;00101151;BADAN NASIONAL PENCARIAN DAN PERTOLONGAN (BASARNAS);038653072020;0939129;Granted;;154.25;159.25;16;45.9794;02319557-000SU/2620202025;0001;BS. POS SAR BIMA;JL. SULTAN MUHAMMAD SALAHUDDIN;-8.51778889;118.68989722;15/08/2020;14/08/2025;;;;;BIMA;Balai Monitor SFR Kelas II Mataram;VHF;3. Komrat VHF, Instanssi Pemerintah/Badan Usaha Keperluan Publik, Maritim VHF (137 - 174 MHz)
Land Mobile (private);Standard;;NUSA TENGGARA BARAT;BIMA;00103494;PLN (PERSERO), PT.;039723102024;3566228;Granted;;351.4;356.4;16;46.9794;02938406-000SU/0620242029;0003;MU.1-09 BERGERAK DI SEKITAR ULP WOHA (19);DESA LAMBITU HATTA;-8.54388889;118.81166667;11/11/2024;10/11/2029;;;;;BIMA;Balai Monitor SFR Kelas II Mataram;UHF;5. Tetap, Bergerak, Marabahaya (300 – 430 MHz)
Land Mobile (private);Standard;JL SOEKARNO HATTA,BIMA,LAMBITU,NUSA TENGGARA BARAT,KA'OWA;NUSA TENGGARA BARAT;BIMA;00103494;PLN (PERSERO), PT.;039904102024;3568505;Granted;;356.5;351.5;25;45.9794;02932626-000SU/2620242029;0002;REP ULP DOMPU (19);JL SOEKARNO HATTA;-8.54388889;118.81166667;11/11/2024;10/11/2029;;;;;BIMA;Balai Monitor SFR Kelas II Mataram;UHF;5. Tetap, Bergerak, Marabahaya (300 – 430 MHz)
Land Mobile (private);Standard;BUKIT DORONAE,BIMA,LAMBITU,NUSA TENGGARA BARAT,KA'OWA;NUSA TENGGARA BARAT;BIMA;00103494;PLN (PERSERO), PT.;039917102024;3568660;Granted;;356.7;351.7;16;45.9794;02932621-000SU/2620242029;0002;REP AREA BIMA (19);BUKIT DORONAE;-8.54388889;118.81166667;11/11/2024;10/11/2029;;;;;BIMA;Balai Monitor SFR Kelas II Mataram;UHF;5. Tetap, Bergerak, Marabahaya (300 – 430 MHz)
Land Mobile (private);Standard;BUKIT DORONAE,BIMA,LAMBITU,NUSA TENGGARA BARAT,KA'OWA;NUSA TENGGARA BARAT;BIMA;00103494;PLN (PERSERO), PT.;039753102024;3566613;Granted;;351.175;356.175;25;45.9794;02932630-000SU/2620242029;0001;BS ULP SAPE (19);BUKIT DORONAE;-8.54388889;118.81166667;11/11/2024;10/11/2029;;;;;BIMA;Balai Monitor SFR Kelas II Mataram;UHF;5. Tetap, Bergerak, Marabahaya (300 – 430 MHz)
Land Mobile (private);Standard;;NUSA TENGGARA BARAT;BIMA;00103494;PLN (PERSERO), PT.;039904102024;3568505;Granted;;351.5;356.5;25;46.9794;02932627-000SU/0620242029;0003;MU.1-10 BERGERAK DI SEKITAR ULP DOMPU (19);JL SOEKARNO HATTA;-8.54388889;118.81166667;11/11/2024;10/11/2029;;;;;BIMA;Balai Monitor SFR Kelas II Mataram;UHF;5. Tetap, Bergerak, Marabahaya (300 – 430 MHz)
Land Mobile (private);Standard;JL. LINTAS SAMPUNGU SOROMANDI, BIMA, SOROMANDI, NUSA TENGGARA BARAT;NUSA TENGGARA BARAT;BIMA;00103494;PLN (PERSERO), PT.;033376042020;0877066;Granted;;352.3;352.3;16;45.9794;02262729-000SU/2620202025;0003;BS. KP_SAMPUNGU;JL. LINTAS SAMPUNGU SOROMANDI;-8.26790556;118.540825;01/04/2020;31/03/2025;;;;;BIMA;Balai Monitor SFR Kelas II Mataram;UHF;5. Tetap, Bergerak, Marabahaya (300 – 430 MHz)
Land Mobile (private);Standard;JL. LINTAS KALEO KEL. LAMBU BARAT, SAPE, BIMA, NTB, BIMA, SAPE, NUSA TENGGARA BARAT;NUSA TENGGARA BARAT;BIMA;00103494;PLN (PERSERO), PT.;031500032020;0871408;Granted;;352.15;352.15;16;45.9794;02256933-000SU/2620202025;0002;19.BS. ULPLTD UNIT SAPE;JL. LINTAS KALEO KEL. LAMBU BARAT, SAPE, BIMA, NTB;-8.57055556;118.98177778;19/03/2020;18/03/2025;;;;;BIMA;Balai Monitor SFR Kelas II Mataram;UHF;5. Tetap, Bergerak, Marabahaya (300 – 430 MHz)
Land Mobile (private);Standard;BAJO TENGAH - DS. BAJO PULAU, SAPE, BIMA, NTB, BIMA, SAPE, NUSA TENGGARA BARAT;NUSA TENGGARA BARAT;BIMA;00103494;PLN (PERSERO), PT.;031551032020;0871407;Granted;;352.2;352.2;16;45.9794;02256936-000SU/2620202025;0001;19.BS. LINK_LABUHAN BAJO;BAJO TENGAH - DS. BAJO PULAU, SAPE, BIMA, NTB;-8.57257222;119.03756111;19/03/2020;18/03/2025;;;;;BIMA;Balai Monitor SFR Kelas II Mataram;UHF;5. Tetap, Bergerak, Marabahaya (300 – 430 MHz)
Land Mobile (private);Standard;JL. LINTAS SUMBAWA-BIMA,PANDAI, BIMA, WOHA, NUSA TENGGARA BARAT;NUSA TENGGARA BARAT;BIMA;00103494;PLN (PERSERO), PT.;036803012020;0840741;Granted;;359.1;364.1;16;45.9794;02233945-000SU/2620202025;0004;BS. GI WOHA;JL. LINTAS SUMBAWA-BIMA,PANDAI;-8.55519444;118.63810278;14/01/2020;13/01/2030;;;;;BIMA;Balai Monitor SFR Kelas II Mataram;UHF;5. Tetap, Bergerak, Marabahaya (300 – 430 MHz)
Land Mobile (private);Standard;JL. LINTAS SUMBAWA-BIMA,PANDAI, BIMA, WOHA, NUSA TENGGARA BARAT;NUSA TENGGARA BARAT;BIMA;00103494;PLN (PERSERO), PT.;036130122019;0837763;Granted;;352.45;352.45;16;45.9794;02230713-000SU/2620202024;0009;BS. GI WOHA 2;JL. LINTAS SUMBAWA-BIMA,PANDAI;-8.55519444;118.63810278;01/01/2020;31/12/2029;;;;;BIMA;Balai Monitor SFR Kelas II Mataram;UHF;5. Tetap, Bergerak, Marabahaya (300 – 430 MHz)
Land Mobile (private);Standard;JL. LINTAS KARUMBU, BIMA, LANGGUDU, NUSA TENGGARA BARAT;NUSA TENGGARA BARAT;BIMA;00103494;PLN (PERSERO), PT.;036978012020;0841175;Granted;;352.275;352.275;16;45.9794;02234419-000SU/2620202025;0001;BS. LINK_KP KARUMBU;JL. LINTAS KARUMBU;-8.70295556;118.82507222;15/01/2020;14/01/2030;;;;;BIMA;Balai Monitor SFR Kelas II Mataram;UHF;5. Tetap, Bergerak, Marabahaya (300 – 430 MHz)
Land Mobile (private);Standard;JL. LINTAS CALABAI DS PEKAT, BIMA, SOROMANDI, NUSA TENGGARA BARAT;NUSA TENGGARA BARAT;BIMA;00103494;PLN (PERSERO), PT.;036967012020;0841174;Granted;;352.25;352.25;16;45.9794;02234371-000SU/2620202025;0002;BS. KP_PEKAT;JL. LINTAS CALABAI DS PEKAT;-8.3049;118.65426667;15/01/2020;14/01/2030;;;;;BIMA;Balai Monitor SFR Kelas II Mataram;UHF;5. Tetap, Bergerak, Marabahaya (300 – 430 MHz)
Land Mobile (private);Standard;JLN. LINTAS KALEO KEL. LAMBU BARAT, BIMA, SAPE, NUSA TENGGARA BARAT;NUSA TENGGARA BARAT;BIMA;00103494;PLN (PERSERO), PT.;034519122019;0830204;Granted;;351.1;356.1;16;45.9794;02225075-000SU/2620192024;0006;BS. ULPLTD_UNIT SAPE;JLN. LINTAS KALEO KEL. LAMBU BARAT;-8.57058333;118.98177778;16/12/2019;15/12/2029;;;;;BIMA;Balai Monitor SFR Kelas II Mataram;UHF;5. Tetap, Bergerak, Marabahaya (300 – 430 MHz)
Land Mobile (private);Standard;JLN. LINTAS KALEO KEL. LAMBU BARAT, SAPE, BIMA, NTB, BIMA, SAPE, NUSA TENGGARA BARAT;NUSA TENGGARA BARAT;BIMA;00103494;PLN (PERSERO), PT.;031675072019;0745187;Granted;;359.675;364.675;16;45.9794;02139004-000SU/2620192024;0003;BS. ULPLTD UNIT SAPE;JLN. LINTAS KALEO KEL. LAMBU BARAT, SAPE, BIMA, NTB;-8.57055556;118.98177778;05/09/2019;04/09/2029;;;;;BIMA;Balai Monitor SFR Kelas II Mataram;UHF;5. Tetap, Bergerak, Marabahaya (300 – 430 MHz)
Broadcast;FM;KOTA BIMA;NUSA TENGGARA BARAT;BIMA;00103577;RADIO PELANGI CITRA NUANSA BIMA, PT;019045042023;1824531;Granted;;103.2;;300;57.6228;02693415-000SU/2020232028;0001;RADIO PELANGI CITRA NUANSA BIMA;JALAN GAJAH MADA NO. 29 BTN PENATOI;-8.47722222;118.91444444;26/04/2023;25/04/2028;;;;;BIMA;Balai Monitor SFR Kelas II Mataram;VHF;1. Radio FM, DRM  (87 – 108 MHz)
Land Mobile (private);Standard;JL. SULTAN SALAHUDDIN NO.22, BIMA, PALIBELO, NUSA TENGGARA BARAT;NUSA TENGGARA BARAT;BIMA;2602;DIREKTORAT JENDERAL BEA DAN CUKAI;031216072021;1132012;Granted;;362.1;367.1;12.5;56.44068;02463652-000SU/2620212026;0002;REP. KPPBC TMP C SUMBAWA BANDARA BIMA;JL. SULTAN SALAHUDDIN NO.22;-8.54105278;118.69128056;03/07/2021;02/07/2026;;;;;BIMA;Balai Monitor SFR Kelas II Mataram;UHF;5. Tetap, Bergerak, Marabahaya (300 – 430 MHz)
Land Mobile (private);Standard;JALAN LINTAS BIMA SAPE, BIMA, LAMBITU, NUSA TENGGARA BARAT;NUSA TENGGARA BARAT;BIMA;00115018;DINAS KOMUNIKASI INFORMASI DAN STATISTIK BIMA;033452082019;0733561;Granted;;166.175;161.175;16;48.0206;02126853-000SU/2620192024;0002;REP. LAMBITU;JALAN LINTAS BIMA SAPE;-8.54416667;118.81138889;06/08/2019;05/08/2029;;;;;BIMA;Balai Monitor SFR Kelas II Mataram;VHF;3. Komrat VHF, Instanssi Pemerintah/Badan Usaha Keperluan Publik, Maritim VHF (137 - 174 MHz)
Land Mobile (private);Standard;BUKIT DORONAE DESA LAMBITU, BIMA, LAMBITU, NUSA TENGGARA BARAT;NUSA TENGGARA BARAT;BIMA;00111851;BADAN PENANGGULANGAN BENCANA DAERAH PEMERINTAH KOTA BIMA;032298092017;0496876;Granted;;169.775;164.775;16;48.0206;01963175-000SU/2620172022;0002;REP. BPBD KOTA BIMA DORONAE;BUKIT DORONAE DESA LAMBITU;-8.54441667;118.81101667;09/10/2017;07/10/2027;;;;;BIMA;Balai Monitor SFR Kelas II Mataram;VHF;3. Komrat VHF, Instanssi Pemerintah/Badan Usaha Keperluan Publik, Maritim VHF (137 - 174 MHz)
Land Mobile (private);Standard;BUKIT DORONAE-LAMBU, WAWO, BIMA, NTB, BIMA, LAMBITU, NUSA TENGGARA BARAT;NUSA TENGGARA BARAT;BIMA;00103494;PLN (PERSERO), PT.;031738072019;0743107;Granted;;364.55;359.55;16;48.0206;02136987-000SU/2620192024;0003;REP. SITE_ULP BIMA KOTA;BUKIT DORONAE-LAMBU, WAWO, BIMA, NTB;-8.54429722;118.811325;30/08/2019;29/08/2029;;;;;BIMA;Balai Monitor SFR Kelas II Mataram;UHF;5. Tetap, Bergerak, Marabahaya (300 – 430 MHz)
Land Mobile (private);Standard;JALAN RAYA TELKOM DORONAE KECAMATAN LAMBITU, BIMA, LAMBITU, NUSA TENGGARA BARAT;NUSA TENGGARA BARAT;BIMA;00116649;DINAS KOMUNIKASI DAN INFORMATIKA KOTA BIMA;039340072020;0934508;Granted;;168.075;163.075;16;48.0206;02316151-000SU/2620202025;0002;REP. KOMINFO KOTA BIMA;JALAN RAYA TELKOM DORONAE KECAMATAN LAMBITU;-8.54358333;118.81113889;06/08/2020;05/08/2025;;;;;BIMA;Balai Monitor SFR Kelas II Mataram;VHF;3. Komrat VHF, Instanssi Pemerintah/Badan Usaha Keperluan Publik, Maritim VHF (137 - 174 MHz)
Land Mobile (private);Standard;JALAN DESA KADOLE KECAMATAN LAMBITU - BIMA,BIMA,WOHA,NUSA TENGGARA BARAT;NUSA TENGGARA BARAT;BIMA;00114905;BADAN PENANGGULANGAN BENCANA DAERAH PEMERINTAH KABUPATEN BIMA;030230022024;3066029;Granted;;161.05;165.9;16;48.0206;02829897-000SU/2620242029;0002;REP BPBD KABUPATEN BIMA;JALAN DESA KADOLE KECAMATAN LAMBITU - BIMA;-8.54416667;118.67805556;27/02/2024;25/02/2029;;;;;BIMA;Balai Monitor SFR Kelas II Mataram;VHF;3. Komrat VHF, Instanssi Pemerintah/Badan Usaha Keperluan Publik, Maritim VHF (137 - 174 MHz)
Land Mobile (private);Standard;BUKIT DORONAE,BIMA,LAMBITU,NUSA TENGGARA BARAT,KA'OWA;NUSA TENGGARA BARAT;BIMA;00103494;PLN (PERSERO), PT.;039753102024;3566613;Granted;;356.175;351.175;25;48.0206;02932629-000SU/2620242029;0002;REP. ULP SAPE (19);BUKIT DORONAE;-8.54388889;118.81166667;11/11/2024;10/11/2029;;;;;BIMA;Balai Monitor SFR Kelas II Mataram;UHF;5. Tetap, Bergerak, Marabahaya (300 – 430 MHz)
Land Mobile (private);Standard;DESA LAMBITU HATTA,BIMA,LAMBITU,NUSA TENGGARA BARAT,KA'OWA;NUSA TENGGARA BARAT;BIMA;00103494;PLN (PERSERO), PT.;039723102024;3566228;Granted;;356.4;351.4;16;48.0206;02938404-000SU/2620242029;0002;REP.WOHA (19);DESA LAMBITU HATTA;-8.54388889;118.81166667;11/11/2024;10/11/2029;;;;;BIMA;Balai Monitor SFR Kelas II Mataram;UHF;5. Tetap, Bergerak, Marabahaya (300 – 430 MHz)
Land Mobile (private);Standard;JL. LINTAS BIMA-SAPE, DS.KAOWA, BIMA, LAMBITU, NUSA TENGGARA BARAT;NUSA TENGGARA BARAT;BIMA;00101151;BADAN NASIONAL PENCARIAN DAN PERTOLONGAN (BASARNAS);038653072020;0939129;Granted;;159.25;154.25;16;60.0206;02319558-000SU/2620202025;0002;REP. DORONAE;JL. LINTAS BIMA-SAPE, DS.KAOWA;-8.54433333;118.81113889;15/08/2020;14/08/2025;;;;;BIMA;Balai Monitor SFR Kelas II Mataram;VHF;3. Komrat VHF, Instanssi Pemerintah/Badan Usaha Keperluan Publik, Maritim VHF (137 - 174 MHz)
Land Mobile (private);Standard;DESA KADOLE KEC. LAMBITU, BIMA, LAMBITU, NUSA TENGGARA BARAT;NUSA TENGGARA BARAT;BIMA;00115364;SATUAN POLISI PAMONG PRAJA KABUPATEN BIMA;038810102019;0774612;Granted;;355.025;350.025;16;48.0206;02156190-000SU/2620192024;0001;REP. LAMBITU;DESA KADOLE KEC. LAMBITU;-8.54416667;118.81138889;08/10/2019;07/10/2029;;;;;BIMA;Balai Monitor SFR Kelas II Mataram;UHF;5. Tetap, Bergerak, Marabahaya (300 – 430 MHz)
Broadcast;FM;BOLO, WOHA, BELO, PALIBELO;NUSA TENGGARA BARAT;BIMA;1035;LEMBAGA PENYIARAN PUBLIK RADIO REPUBLIK INDONESIA;019492092020;0970608;Granted;;91.4;;300;65.3103;02347010-000SU/2020202025;0001;LPP RRI BIMA 91.4 MHz;JL. LINTAS RISA KALAMPA, KALAMPA,;-8.58103611;118.67838611;25/09/2020;24/09/2025;;;;;BIMA;Balai Monitor SFR Kelas II Mataram;VHF;1. Radio FM, DRM  (87 – 108 MHz)
Land Mobile (private);Standard;BUKIT DORONAE-LAMBU, BIMA, LAMBITU, NUSA TENGGARA BARAT;NUSA TENGGARA BARAT;BIMA;00103494;PLN (PERSERO), PT.;036803012020;0840741;Granted;;364.1;359.1;16;48.0206;02233949-000SU/2620202025;0008;REP. DCC BIMA;BUKIT DORONAE-LAMBU;-8.54429722;118.811325;14/01/2020;13/01/2030;;;;;BIMA;Balai Monitor SFR Kelas II Mataram;UHF;5. Tetap, Bergerak, Marabahaya (300 – 430 MHz)
Land Mobile (private);Standard;BUKIT DORONAE-LAMBU, BIMA, LAMBITU, NUSA TENGGARA BARAT;NUSA TENGGARA BARAT;BIMA;00103494;PLN (PERSERO), PT.;034369122019;0826863;Granted;;357.05;352.05;25;48.0206;02220813-000SU/2620192024;0004;REP. SITE_ULP BIMA KOTA;BUKIT DORONAE-LAMBU;-8.54429722;118.811325;08/12/2019;07/12/2029;;;;;BIMA;Balai Monitor SFR Kelas II Mataram;UHF;5. Tetap, Bergerak, Marabahaya (300 – 430 MHz)
Broadcast;DVB-T;NUSA TENGGARA BARAT - 5;NUSA TENGGARA BARAT;BIMA;2073;LEMBAGA PENYIARAN PUBLIK TELEVISI REPUBLIK INDONESIA;017230112022;1730934;Granted;;538;;8000;72.0699;02648448-000SU/2020222027;0001;TVRI BIMA;JL. SITE DORONALE, KEL. KAOWA;-8.54363056;118.81107778;21/12/2022;20/12/2027;;;;;BIMA;Balai Monitor SFR Kelas II Mataram;UHF;8. Televisi UHF, IMT (478 – 806 MHz)
Land Mobile (private);Standard;JL. LINTAS SUMBAWA, DESA TEKASIRE, KEC. MANGGALEWA, KAB. DOMPU, NUSA TENGGARA BARAT, DOMPU, MANGGALEWA, NUSA TENGGARA BARAT;NUSA TENGGARA BARAT;DOMPU;00115081;SEGER AGRO NUSANTARA, PT.;035954042021;1096008;Granted;;152.775;152.775;16;36.9897;02442514-000SU/0620212026;0002;HT 2-17 BERGERAK SEKITAR JL. LINTAS SUMBAWA;JL. LINTAS SUMBAWA, DESA TEKASIRE, KEC. MANGGALEWA, KAB. DOMPU, NUSA TENGGARA BARAT;-8.54191667;118.34272222;17/04/2021;16/04/2026;;;;;DOMPU;Balai Monitor SFR Kelas II Mataram;VHF;3. Komrat VHF, Instanssi Pemerintah/Badan Usaha Keperluan Publik, Maritim VHF (137 - 174 MHz)
Land Mobile (private);Standard;JALAN UDANG NO. 12 KELURAHAN BALI, DOMPU, DOMPU, NUSA TENGGARA BARAT;NUSA TENGGARA BARAT;DOMPU;00117600;DUNIA MAS, PT.;034191032021;1077742;Granted;;167.3;167.3;16;36.9897;02429990-000SU/0620212026;0001;HT. 01 BERGERAK DISEKITAR KELURAHAN BALI;JALAN UDANG NO. 12 KELURAHAN BALI;-8.53680833;118.45816389;08/03/2021;07/03/2026;;;;;DOMPU;Balai Monitor SFR Kelas II Mataram;VHF;3. Komrat VHF, Instanssi Pemerintah/Badan Usaha Keperluan Publik, Maritim VHF (137 - 174 MHz)
Land Mobile (private);Standard;JALAN LINTAS SUMBAWA KECAMATAN MANGGELEWA, DOMPU, MANGGALEWA, NUSA TENGGARA BARAT;NUSA TENGGARA BARAT;DOMPU;00117604;SINAR AGRO GEMILANG INDAH, PT.;034290032021;1078570;Granted;;354.825;354.825;16;36.9897;02431023-000SU/0620212026;0002;HT. 02-10 BERGERAK DISEKITAR KECAMATAN MANGGELEWA;JALAN LINTAS SUMBAWA KECAMATAN MANGGELEWA;-8.53789167;118.30582778;10/03/2021;09/03/2026;;;;;DOMPU;Balai Monitor SFR Kelas II Mataram;UHF;5. Tetap, Bergerak, Marabahaya (300 – 430 MHz)
Land Mobile (private);Standard;DESA BERINGIN JAYA KECAMATAN PEKAT, DOMPU, PEKAT, NUSA TENGGARA BARAT;NUSA TENGGARA BARAT;DOMPU;00104530;SUKSES MANTAP SEJAHTERA, PT.;031578082017;0487562;Granted;;155.5;160.5;16;36.9897;01956299-000SU/0620172022;0003;HT. 01-30 PEKAT DAN SEKITARNYA;DESA BERINGIN JAYA KECAMATAN PEKAT;-8.28768056;117.76655556;07/09/2017;05/09/2027;;;;;DOMPU;Balai Monitor SFR Kelas II Mataram;VHF;3. Komrat VHF, Instanssi Pemerintah/Badan Usaha Keperluan Publik, Maritim VHF (137 - 174 MHz)
Aeronautical;Ground-To-Air;Kecamatan Hu'u, Kabupaten Dompu, Nusa Tenggara Barat,DOMPU,HU'U,NUSA TENGGARA BARAT;NUSA TENGGARA BARAT;DOMPU;00102812;SUMBAWA TIMUR MINING, PT.;00142032024;1067/DU/SDPPI/2024;Granted;;129.65;;0;39.0309;;0001;HUU MINING RADIO;Kecamatan Hu'u, Kabupaten Dompu, Nusa Tenggara Barat;-8.75531667;118.41713889;21/03/2024;21/03/2029;;;;;DOMPU;Balai Monitor SFR Kelas II Mataram;VHF;2. Penerbangan VHF (108 – 137 MHz)
Land Mobile (public);Trunking;KAMPUNG DOROFANDA KEC HU'U KAB DOMPU HU'U NUSA TENGGARA BARAT, HU'U DOMPU NUSA TENGGARA BARAT,DOMPU,HU'U,NUSA TENGGARA BARAT;NUSA TENGGARA BARAT;DOMPU;103031;NEXCOM INDONESIA, PT.;10142137072023;2354991;Granted;;421.3875;411.3875;12.5;46.9794;02738431-000SU/2620232028;0001;BS.02 DOROFANDA;KAMPUNG DOROFANDA KEC HU'U KAB DOMPU HU'U NUSA TENGGARA BARAT, HU'U DOMPU NUSA TENGGARA BARAT;-8.83936389;118.453075;04/08/2023;02/08/2028;;;;;DOMPU;Balai Monitor SFR Kelas II Mataram;UHF;5. Tetap, Bergerak, Marabahaya (300 – 430 MHz)
Land Mobile (public);Trunking;KAMPUNG MADADUE DESA DAHA KECAMATAN HU'U KABUPATEN DOMPU HU'U 84211 DOMPU NUSA TENGGARA BARAT HU'U DOMPU NUSA TENGGARA BARAT,DOMPU,HU'U,NUSA TENGGARA BARAT;NUSA TENGGARA BARAT;DOMPU;103031;NEXCOM INDONESIA, PT.;10142138072023;2355005;Prelim. Canceled;;424.3875;414.3875;12.5;46.9794;02738434-000SU/2620232028;0001;BS.02 MADADUE;KAMPUNG MADADUE DESA DAHA KECAMATAN HU'U KABUPATEN DOMPU HU'U 84211 DOMPU NUSA TENGGARA BARAT HU'U DOMPU NUSA TENGGARA BARAT;-8.79012778;118.47159167;04/08/2023;06/07/2025;;;;;DOMPU;Balai Monitor SFR Kelas II Mataram;UHF;5. Tetap, Bergerak, Marabahaya (300 – 430 MHz)
Land Mobile (private);Standard;DESA DOROPETI, DOMPU, PEKAT, NUSA TENGGARA BARAT;NUSA TENGGARA BARAT;DOMPU;00104530;SUKSES MANTAP SEJAHTERA, PT.;038217052017;0437480/2;Granted;;163.425;168.425;16;45.9794;01943893-000SU/2620172022;0001;BS. SMS AGRO;DESA DOROPETI;-8.39088333;117.88172222;08/06/2017;07/06/2027;;;;;DOMPU;Balai Monitor SFR Kelas II Mataram;VHF;3. Komrat VHF, Instanssi Pemerintah/Badan Usaha Keperluan Publik, Maritim VHF (137 - 174 MHz)
Land Mobile (public);Trunking;DESA KAJUJI KECAMATAN HU'U KABUPATEN DOMPU HU'U DOMPU NUSA TENGGARA BARAT 84211, HU'U DOMPU NUSA TENGGARA BARAT 84211,DOMPU,HU'U,NUSA TENGGARA BARAT;NUSA TENGGARA BARAT;DOMPU;103031;NEXCOM INDONESIA, PT.;10142136072023;2354975;Granted;;420.3875;410.3875;12.5;46.9794;02738432-000SU/2620232028;0001;BS.02 NEW STAGGING;DESA KAJUJI KECAMATAN HU'U KABUPATEN DOMPU HU'U DOMPU NUSA TENGGARA BARAT 84211, HU'U DOMPU NUSA TENGGARA BARAT 84211;-8.75471389;118.41768889;04/08/2023;02/08/2028;;;;;DOMPU;Balai Monitor SFR Kelas II Mataram;UHF;5. Tetap, Bergerak, Marabahaya (300 – 430 MHz)
Land Mobile (public);Trunking;JALAN LINTAS LAKY DESA NANGADORO KECAMATAN HU'U KABUPATEN DOMPU NUSA TENGGARA BARAT, DOMPU, HU U, NUSA TENGGARA BARAT;NUSA TENGGARA BARAT;DOMPU;103031;NEXCOM INDONESIA, PT.;10136831102021;1188224;Prelim. Canceled;;426.6375;416.6375;12.5;48.9794;02493937-000SU/2620212026;0002;BS 01 NANGADORO;JALAN LINTAS LAKY DESA NANGADORO KECAMATAN HU'U KABUPATEN DOMPU NUSA TENGGARA BARAT;-8.83257778;118.41141389;21/10/2021;20/10/2025;;;;;DOMPU;Balai Monitor SFR Kelas II Mataram;UHF;5. Tetap, Bergerak, Marabahaya (300 – 430 MHz)
Land Mobile (public);Trunking;JALAN LINTAS LAKY DESA NANGADORO KECAMATAN HU'U KABUPAJJTEN DOMPU NUSA TENGGARA BARAT, DOMPU, HU'U, NUSA TENGGARA BARAT;NUSA TENGGARA BARAT;DOMPU;103031;NEXCOM INDONESIA, PT.;10137418072022;1361094;Prelim. Canceled;;429.1375;419.1375;12.5;48.9794;02586696-000SU/2620222027;0001;B.S 03 NANGADORO;JALAN LINTAS LAKY DESA NANGADORO KECAMATAN HU'U KABUPAJJTEN DOMPU NUSA TENGGARA BARAT;-8.83257778;118.41591111;05/08/2022;04/08/2025;;;;;DOMPU;Balai Monitor SFR Kelas II Mataram;UHF;5. Tetap, Bergerak, Marabahaya (300 – 430 MHz)
Land Mobile (private);Standard;JL. LINGKAR UTARA KARIJAWA, DOMPU, DOMPU, NUSA TENGGARA BARAT;NUSA TENGGARA BARAT;DOMPU;00103494;PLN (PERSERO), PT.;036803012020;0840741;Granted;;359.1;364.1;16;45.9794;02233944-000SU/2620202025;0003;BS. GI DOMPU;JL. LINGKAR UTARA KARIJAWA;-8.53243889;118.45485;14/01/2020;13/01/2030;;;;;DOMPU;Balai Monitor SFR Kelas II Mataram;UHF;5. Tetap, Bergerak, Marabahaya (300 – 430 MHz)
Land Mobile (private);Standard;JL SOEKARNO HATTA,DOMPU,DOMPU,NUSA TENGGARA BARAT,BADA;NUSA TENGGARA BARAT;DOMPU;00103494;PLN (PERSERO), PT.;039924102024;3568777;Granted;;353.15;353.15;16;45.9794;02932603-000SU/2620242029;0002;BS ULP DOMPU (19);JL SOEKARNO HATTA;-8.53777778;118.46277778;11/11/2024;10/11/2029;;;;;DOMPU;Balai Monitor SFR Kelas II Mataram;UHF;5. Tetap, Bergerak, Marabahaya (300 – 430 MHz)
Land Mobile (private);Standard;JL RAYA KONTE,DOMPU,KEMPO,NUSA TENGGARA BARAT,SONGGAJA;NUSA TENGGARA BARAT;DOMPU;00103494;PLN (PERSERO), PT.;039741102024;3566421;Granted;;353.55;353.55;16;45.9794;02929880-000SU/2620242029;0001;BS LINK SAMBI (19);JL RAYA KONTE;-8.53277778;118.22222222;28/10/2024;27/10/2029;;;;;DOMPU;Balai Monitor SFR Kelas II Mataram;UHF;5. Tetap, Bergerak, Marabahaya (300 – 430 MHz)
Land Mobile (public);Trunking;JALAN LINTAS LAKY DESA NANGADORO KECAMATAN HU'U KABUPATEN DOMPU BUSA TENGGARA BARAT, HU'U DOMPU NUSA TENGGARA BARAT,DOMPU,HU'U,NUSA TENGGARA BARAT;NUSA TENGGARA BARAT;DOMPU;103031;NEXCOM INDONESIA, PT.;10142135072023;2354835;Prelim. Canceled;;426.3875;416.3875;12.5;46.9794;02738433-000SU/2620232028;0001;BS.02 NANGADORO;JALAN LINTAS LAKY DESA NANGADORO KECAMATAN HU'U KABUPATEN DOMPU BUSA TENGGARA BARAT, HU'U DOMPU NUSA TENGGARA BARAT;-8.82444444;118.41141389;04/08/2023;06/07/2025;;;;;DOMPU;Balai Monitor SFR Kelas II Mataram;UHF;5. Tetap, Bergerak, Marabahaya (300 – 430 MHz)
Land Mobile (public);Trunking;KAMPUNG MADADUE DESA DAHA KECAMATAN HU'U KABUPATEN DOMPU HU'U  84211 DOMPU NUSA TENGGARA BARAT, DOMPU, HU'U, NUSA TENGGARA BARAT;NUSA TENGGARA BARAT;DOMPU;103031;NEXCOM INDONESIA, PT.;10137419072022;1361117;Prelim. Canceled;;428.6375;418.6375;12.5;48.9794;02586698-000SU/2620222027;0001;B.S 03 MADADUE;KAMPUNG MADADUE DESA DAHA KECAMATAN HU'U KABUPATEN DOMPU HU'U  84211 DOMPU NUSA TENGGARA BARAT;-8.78985;118.47159167;05/08/2022;04/08/2025;;;;;DOMPU;Balai Monitor SFR Kelas II Mataram;UHF;5. Tetap, Bergerak, Marabahaya (300 – 430 MHz)
Land Mobile (public);Trunking;KAMPUNG DOROFANDA KEC HU'U KAB DOMPU HU'U NUSA TENGGARA BARAT DOMPU HU'U NUSA TENGGARA BARAT, DOMPU, HU'U, NUSA TENGGARA BARAT;NUSA TENGGARA BARAT;DOMPU;103031;NEXCOM INDONESIA, PT.;10137420072022;1361132;Granted;;428.1375;418.1375;12.5;48.9794;02586697-000SU/2620222027;0001;B.S 03 DOROFANDA;KAMPUNG DOROFANDA KEC HU'U KAB DOMPU HU'U NUSA TENGGARA BARAT DOMPU HU'U NUSA TENGGARA BARAT;-8.83936389;118.45313056;05/08/2022;04/08/2027;;;;;DOMPU;Balai Monitor SFR Kelas II Mataram;UHF;5. Tetap, Bergerak, Marabahaya (300 – 430 MHz)
Land Mobile (public);Trunking;KAMPUNG MADADUE DESA DAHA KECAMATAN HU'U KABUPATEN DOMPU HU'U  84211 DOMPU NUSA TENGGARA BARAT, DOMPU, HU U, NUSA TENGGARA BARAT;NUSA TENGGARA BARAT;DOMPU;103031;NEXCOM INDONESIA, PT.;10136642082021;1154133;Prelim. Canceled;;424.6375;414.6375;12.5;48.9794;02472098-000SU/2620212026;0001;BS. MADADUE;KAMPUNG MADADUE DESA DAHA KECAMATAN HU'U KABUPATEN DOMPU HU'U  84211 DOMPU NUSA TENGGARA BARAT;-8.78985;118.47159167;10/08/2021;09/08/2025;;;;;DOMPU;Balai Monitor SFR Kelas II Mataram;UHF;5. Tetap, Bergerak, Marabahaya (300 – 430 MHz)
Land Mobile (public);Trunking;DESA KAJUJI KECAMATAN HU'U KABUPATEN DOMPU HUU, DOMPU NUSA TENGGARA BARAT 84211, DOMPU, HU U, NUSA TENGGARA BARAT;NUSA TENGGARA BARAT;DOMPU;103031;NEXCOM INDONESIA, PT.;10136640082021;1154134;Granted;;420.6375;410.6375;12.5;48.9794;02472099-000SU/2620212026;0001;BS. NEW STAGING;DESA KAJUJI KECAMATAN HU'U KABUPATEN DOMPU HUU, DOMPU NUSA TENGGARA BARAT 84211;-8.75471389;118.41768889;10/08/2021;09/08/2026;;;;;DOMPU;Balai Monitor SFR Kelas II Mataram;UHF;5. Tetap, Bergerak, Marabahaya (300 – 430 MHz)
Land Mobile (public);Trunking;JALAN LINTAS LAKY DESA NANGADORO KECAMATAN HU'U KABUPATEN DOMPU NUSA TENGGARA BARAT, DOMPU, HU U, NUSA TENGGARA BARAT;NUSA TENGGARA BARAT;DOMPU;103031;NEXCOM INDONESIA, PT.;10136831102021;1188224;Prelim. Canceled;;426.1375;416.1375;12.5;48.9794;02493936-000SU/2620212026;0001;BS NANGADORO;JALAN LINTAS LAKY DESA NANGADORO KECAMATAN HU'U KABUPATEN DOMPU NUSA TENGGARA BARAT;-8.83257778;118.41141389;21/10/2021;20/10/2025;;;;;DOMPU;Balai Monitor SFR Kelas II Mataram;UHF;5. Tetap, Bergerak, Marabahaya (300 – 430 MHz)
Land Mobile (public);Trunking;JALAN LINTAS LAKY DESA NANGADORO KECAMATAN HU'U KABUPATEN DOMPU NUSA TENGGARA BARAT, DOMPU, HU U, NUSA TENGGARA BARAT;NUSA TENGGARA BARAT;DOMPU;103031;NEXCOM INDONESIA, PT.;10136873112021;1203004;Granted;;427.6375;417.6375;12.5;48.9794;02501845-000SU/2620212026;0001;BS. NANGADORO 2;JALAN LINTAS LAKY DESA NANGADORO KECAMATAN HU'U KABUPATEN DOMPU NUSA TENGGARA BARAT;-8.83257778;118.41591111;19/11/2021;18/11/2026;;;;;DOMPU;Balai Monitor SFR Kelas II Mataram;UHF;5. Tetap, Bergerak, Marabahaya (300 – 430 MHz)
Land Mobile (private);Standard;JL. LINTAS CALABAI - DS. PEKAT, PEKAT, DOMPU, NTB, DOMPU, PEKAT, NUSA TENGGARA BARAT;NUSA TENGGARA BARAT;DOMPU;00103494;PLN (PERSERO), PT.;033370042020;0877047;Granted;;352.6;352.6;16;45.9794;02262782-000SU/2620202025;0001;19.BS. LINK_KP PEKAT;JL. LINTAS CALABAI - DS. PEKAT, PEKAT, DOMPU, NTB;-8.25330556;117.73091667;01/04/2020;31/03/2025;;;;;DOMPU;Balai Monitor SFR Kelas II Mataram;UHF;5. Tetap, Bergerak, Marabahaya (300 – 430 MHz)
Land Mobile (private);Standard;JL. TEUKU UMAR NO.10 KEL SIMPASAI, WOJA, DOMPU, NTB, DOMPU, WOJA, NUSA TENGGARA BARAT;NUSA TENGGARA BARAT;DOMPU;00103494;PLN (PERSERO), PT.;031121032020;0871410;Granted;;352.2;352.2;16;45.9794;02256925-000SU/2620202025;0001;19.BS. ULPLTD DOMPU;JL. TEUKU UMAR NO.10 KEL SIMPASAI, WOJA, DOMPU, NTB;-8.54419444;118.44386111;19/03/2020;18/03/2025;;;;;DOMPU;Balai Monitor SFR Kelas II Mataram;UHF;5. Tetap, Bergerak, Marabahaya (300 – 430 MHz)
Land Mobile (private);Standard;JL. SUMBAWA-BIMA, DOMPU, MANGGALEWA, NUSA TENGGARA BARAT;NUSA TENGGARA BARAT;DOMPU;00103494;PLN (PERSERO), PT.;036955012020;0841173;Granted;;352.225;352.225;16;45.9794;02234436-000SU/2620202025;0001;BS. LINK_TEKASIRE;JL. SUMBAWA-BIMA;-8.54661111;118.34548889;15/01/2020;14/01/2030;;;;;DOMPU;Balai Monitor SFR Kelas II Mataram;UHF;5. Tetap, Bergerak, Marabahaya (300 – 430 MHz)
Land Mobile (private);Standard;JLN. LINGKAR UTARA KARIJAWA, DOMPU, DOMPU, NUSA TENGGARA BARAT;NUSA TENGGARA BARAT;DOMPU;00103494;PLN (PERSERO), PT.;036130122019;0837763;Granted;;352.45;352.45;16;45.9794;02230710-000SU/2620202024;0006;BS. GI DOMPU 1;JLN. LINGKAR UTARA KARIJAWA;-8.53243889;118.45485;01/01/2020;31/12/2029;;;;;DOMPU;Balai Monitor SFR Kelas II Mataram;UHF;5. Tetap, Bergerak, Marabahaya (300 – 430 MHz)
Land Mobile (private);Standard;Jln. Teuku Umar no.10 Kel Simpasai, DOMPU, WOJA, NUSA TENGGARA BARAT;NUSA TENGGARA BARAT;DOMPU;00103494;PLN (PERSERO), PT.;034519122019;0830204;Granted;;351.1;356.1;16;45.9794;02225073-000SU/2620192024;0004;BS. ULPLTD_DOMPU 1;Jln. Teuku Umar no.10 Kel Simpasai;-8.54419444;118.44386111;16/12/2019;15/12/2029;;;;;DOMPU;Balai Monitor SFR Kelas II Mataram;UHF;5. Tetap, Bergerak, Marabahaya (300 – 430 MHz)
Land Mobile (private);Standard;JLN. TEUKU UMAR NO.10 KEL SIMPASAI, WOJA, DOMPU, NTB, DOMPU, WOJA, NUSA TENGGARA BARAT;NUSA TENGGARA BARAT;DOMPU;00103494;PLN (PERSERO), PT.;031675072019;0745187;Granted;;359.675;364.675;16;45.9794;02139003-000SU/2620192024;0002;BS. ULPLTD DOMPU;JLN. TEUKU UMAR NO.10 KEL SIMPASAI, WOJA, DOMPU, NTB;-8.54419444;118.44386111;05/09/2019;04/09/2029;;;;;DOMPU;Balai Monitor SFR Kelas II Mataram;UHF;5. Tetap, Bergerak, Marabahaya (300 – 430 MHz)
Land Mobile (private);Standard;KAMPUNG MADADUWE DESA DAHA KECAMATAN HU'U, KABUPATEN DOMPU  HU'U 84211, DOMPU, HUU, NUSA TENGGARA BARAT;NUSA TENGGARA BARAT;DOMPU;00102812;SUMBAWA TIMUR MINING, PT.;035801122015;0338488;Granted;;153.175;158.175;16;49.8794;01849285-000SU/2620162021;0008;BS. NEW STAGING CAMP 2;KAMPUNG MADADUWE DESA DAHA KECAMATAN HU'U, KABUPATEN DOMPU  HU'U 84211;-8.79008333;118.47052778;11/01/2016;10/01/2026;;;;;DOMPU;Balai Monitor SFR Kelas II Mataram;VHF;3. Komrat VHF, Instanssi Pemerintah/Badan Usaha Keperluan Publik, Maritim VHF (137 - 174 MHz)
Land Mobile (private);Standard;KAMPUNG MADADUWE DESA DAHA KECAMATAN HU'U, KABUPATEN DOMPU  HU'U 84211, DOMPU, HUU, NUSA TENGGARA BARAT;NUSA TENGGARA BARAT;DOMPU;00102812;SUMBAWA TIMUR MINING, PT.;035857122015;0345611;Granted;;153.225;158.225;16;49.8794;01849325-000SU/2620162021;0007;BS. STAGING CAMP 2;KAMPUNG MADADUWE DESA DAHA KECAMATAN HU'U, KABUPATEN DOMPU  HU'U 84211;-8.79008333;118.47052778;11/01/2016;10/01/2026;;;;;DOMPU;Balai Monitor SFR Kelas II Mataram;VHF;3. Komrat VHF, Instanssi Pemerintah/Badan Usaha Keperluan Publik, Maritim VHF (137 - 174 MHz)
Land Mobile (public);Trunking;KAMPUNG DOROFANDA KEC HU'U KAB DOMPU HU'U NUSA TENGGARA BARAT, DOMPU, HU U, NUSA TENGGARA BARAT;NUSA TENGGARA BARAT;DOMPU;103031;NEXCOM INDONESIA, PT.;10122509112020;1008069;Granted;;421.6375;411.6375;12.5;49.77121;02383690-000SU/2620202025;0002;B.S.02 DOROFANDA;KAMPUNG DOROFANDA KEC HU'U KAB DOMPU HU'U NUSA TENGGARA BARAT;-8.83936389;118.453075;13/11/2020;12/11/2025;;;;;DOMPU;Balai Monitor SFR Kelas II Mataram;UHF;5. Tetap, Bergerak, Marabahaya (300 – 430 MHz)
Land Mobile (public);Trunking;DESA KAJUJI KECAMATAN HU'U KABUPATEN DOMPU HU'U, DOMPU NUSA TENGGARA BARAT 84211, DOMPU, HU U, NUSA TENGGARA BARAT;NUSA TENGGARA BARAT;DOMPU;103031;NEXCOM INDONESIA, PT.;10122505112020;1008071;Granted;;420.1375;410.1375;12.5;49.77121;02383692-000SU/2620202025;0001;NEW STAGING;DESA KAJUJI KECAMATAN HU'U KABUPATEN DOMPU HU'U, DOMPU NUSA TENGGARA BARAT 84211;-8.75471389;118.41768889;13/11/2020;12/11/2025;;;;;DOMPU;Balai Monitor SFR Kelas II Mataram;UHF;5. Tetap, Bergerak, Marabahaya (300 – 430 MHz)
Land Mobile (public);Trunking;KAMPUNG MADADUWE DESA DAHA KECAMATAN HU'U, KABUPATEN DOMPU HU'U 84211, HU'U DOMPU NUSA TENGGARA BARA, DOMPU, HU U, NUSA TENGGARA BARAT;NUSA TENGGARA BARAT;DOMPU;103031;NEXCOM INDONESIA, PT.;10122507112020;1008070;Prelim. Canceled;;424.1375;414.1375;12.5;49.77121;02383691-000SU/2620202025;0001;MADADUE;KAMPUNG MADADUWE DESA DAHA KECAMATAN HU'U, KABUPATEN DOMPU HU'U 84211, HU'U DOMPU NUSA TENGGARA BARA;-8.78985;118.47159167;13/11/2020;12/11/2025;;;;;DOMPU;Balai Monitor SFR Kelas II Mataram;UHF;5. Tetap, Bergerak, Marabahaya (300 – 430 MHz)
Land Mobile (public);Trunking;KAMPUNG DOROFANDA KEC HU'U KAB DOMPU HU'U NUSA TENGGARA BARAT, DOMPU, HU U, NUSA TENGGARA BARAT;NUSA TENGGARA BARAT;DOMPU;103031;NEXCOM INDONESIA, PT.;10122509112020;1008069;Granted;;421.1375;411.1375;12.5;49.77121;02383689-000SU/2620202025;0001;B.S DOROFANDA;KAMPUNG DOROFANDA KEC HU'U KAB DOMPU HU'U NUSA TENGGARA BARAT;-8.83936389;118.453075;13/11/2020;12/11/2025;;;;;DOMPU;Balai Monitor SFR Kelas II Mataram;UHF;5. Tetap, Bergerak, Marabahaya (300 – 430 MHz)
Broadcast;FM;DOMPU, WOJA, PAJO;NUSA TENGGARA BARAT;DOMPU;00113434;GEMA TAMBORA PERMAI, PT.;013063102018;0648660;Granted;;87.8;;300;66.51;02059858-000SU/2020182023;0001;GTP;Jalan Benteng no 9;-8.53919167;118.43273611;26/10/2018;25/10/2028;;;;;DOMPU;Balai Monitor SFR Kelas II Mataram;VHF;1. Radio FM, DRM  (87 – 108 MHz)
Land Mobile (private);Standard;KAMPUNG MADADUWE DESA DAHA KECAMATAN HU'U, KABUPATEN DOMPU  HU'U 84211, DOMPU, HUU, NUSA TENGGARA BARAT;NUSA TENGGARA BARAT;DOMPU;00102812;SUMBAWA TIMUR MINING, PT.;035801122015;0338488;Granted;;158.175;153.175;16;48.9206;01849288-000SU/2620162021;00011;REPEATER OPERASIONAL MADADUE;KAMPUNG MADADUWE DESA DAHA KECAMATAN HU'U, KABUPATEN DOMPU  HU'U 84211;-8.79008333;118.47052778;11/01/2016;10/01/2026;;;;;DOMPU;Balai Monitor SFR Kelas II Mataram;VHF;3. Komrat VHF, Instanssi Pemerintah/Badan Usaha Keperluan Publik, Maritim VHF (137 - 174 MHz)
Land Mobile (private);Standard;KAMPUNG MADADUWE DESA DAHA KECAMATAN HU'U, KABUPATEN DOMPU  HU'U 84211, DOMPU, HUU, NUSA TENGGARA BARAT;NUSA TENGGARA BARAT;DOMPU;00102812;SUMBAWA TIMUR MINING, PT.;035857122015;0345611;Granted;;158.225;153.225;16;48.9206;01849321-000SU/2620162021;00011;REPEATER EMERGENCY MADADUE;KAMPUNG MADADUWE DESA DAHA KECAMATAN HU'U, KABUPATEN DOMPU  HU'U 84211;-8.79008333;118.47052778;11/01/2016;10/01/2026;;;;;DOMPU;Balai Monitor SFR Kelas II Mataram;VHF;3. Komrat VHF, Instanssi Pemerintah/Badan Usaha Keperluan Publik, Maritim VHF (137 - 174 MHz)
Land Mobile (private);Standard;DESA BERINGIN JAYA KECAMATAN PEKAT, DOMPU, PEKAT, NUSA TENGGARA BARAT;NUSA TENGGARA BARAT;DOMPU;00104530;SUKSES MANTAP SEJAHTERA, PT.;031578082017;0487562;Granted;;160.5;155.5;16;48.0206;01956301-000SU/2620172022;0001;REPEATER LATONDA - PEKAT;DESA BERINGIN JAYA KECAMATAN PEKAT;-8.28768056;117.76655556;07/09/2017;05/09/2027;;;;;DOMPU;Balai Monitor SFR Kelas II Mataram;VHF;3. Komrat VHF, Instanssi Pemerintah/Badan Usaha Keperluan Publik, Maritim VHF (137 - 174 MHz)
Broadcast;FM;DOMPU, WOJA, PAJO;NUSA TENGGARA BARAT;DOMPU;1035;LEMBAGA PENYIARAN PUBLIK RADIO REPUBLIK INDONESIA;019060082020;0942903;Granted;;89.4;;300;65.3;02323824-000SU/2020202025;0001;LPP RRI DOMPU;JL.SIMPASAI WOJA;-8.54187222;118.445975;25/08/2020;24/08/2025;;;;;DOMPU;Balai Monitor SFR Kelas II Mataram;VHF;1. Radio FM, DRM  (87 – 108 MHz)
Land Mobile (private);Standard;JALAN RAYA PANTAI LAWATA, KOTA BIMA, RASANAE BARAT, NUSA TENGGARA BARAT;NUSA TENGGARA BARAT;KOTA BIMA;00117419;CV. GRAND MARINA;032020022021;1062288;Granted;;167.35;167.35;16;36.9897;02420568-000SU/0620212026;0002;HT. 02 - 05  BERGERAK DISEKITAR KEC RASANAE BARAT;JALAN RAYA PANTAI LAWATA;-8.47;118.72216667;03/02/2021;02/02/2026;;;;;KOTA BIMA;Balai Monitor SFR Kelas II Mataram;VHF;3. Komrat VHF, Instanssi Pemerintah/Badan Usaha Keperluan Publik, Maritim VHF (137 - 174 MHz)
Land Mobile (private);Standard;;NUSA TENGGARA BARAT;KOTA BIMA;00103743;PELABUHAN INDONESIA (PERSERO), PT.;030830022024;3080844;Granted;;151.1;151.1;16;36.9897;02838470-000SU/0620242029;0002;HT.02 - 07 BERGERAK SEKITAR JL RE MARTADINATA TANJUNG;JL. RE MARTADINATA, TANJUNG, KEC. RASANAE BAR., KAB. BIMA, NUSA TENGGARA BAR. 84118;-8.44861111;118.715;20/03/2024;19/03/2029;;;;;KOTA BIMA;Balai Monitor SFR Kelas II Mataram;VHF;3. Komrat VHF, Instanssi Pemerintah/Badan Usaha Keperluan Publik, Maritim VHF (137 - 174 MHz)
Maritime;Coast Station;JL. SULTAN MUHAMAD SALAHUDDIN, DARA,KOTA BIMA,RASANAE BARAT,NUSA TENGGARA BARAT;NUSA TENGGARA BARAT;KOTA BIMA;00108233;PERTAMINA TRANS KONTINENTAL, PT.;0188311;140/P/SDPPI/2022/2;Granted;;156.95;161.55;7250;36.9897;;0001;BIMA RADIO;JL. SULTAN MUHAMAD SALAHUDDIN, DARA;-8.47777778;118.71138889;31/08/2023;23/06/2027;;;;;KOTA BIMA;Balai Monitor SFR Kelas II Mataram;VHF;3. Komrat VHF, Instanssi Pemerintah/Badan Usaha Keperluan Publik, Maritim VHF (137 - 174 MHz)
Maritime;Coast Station;JL. SULTAN MUHAMAD SALAHUDDIN, DARA,KOTA BIMA,RASANAE BARAT,NUSA TENGGARA BARAT;NUSA TENGGARA BARAT;KOTA BIMA;00108233;PERTAMINA TRANS KONTINENTAL, PT.;0188311;140/P/SDPPI/2022/2;Granted;;156.525;156.525;7250;36.9897;;0001;BIMA RADIO;JL. SULTAN MUHAMAD SALAHUDDIN, DARA;-8.47777778;118.71138889;31/08/2023;23/06/2027;;;;;KOTA BIMA;Balai Monitor SFR Kelas II Mataram;VHF;3. Komrat VHF, Instanssi Pemerintah/Badan Usaha Keperluan Publik, Maritim VHF (137 - 174 MHz)
Land Mobile (private);Standard;JL. SULTAN MUHAMMAD SALAHUDIN, DARA, RASANAE, KOTA BIMA, RASANAE BARAT, NUSA TENGGARA BARAT;NUSA TENGGARA BARAT;KOTA BIMA;00115705;ELNUSA PETROFIN, PT.;034257032021;1080511;Granted;;167.4;167.4;16;36.9897;02432484-000SU/0620212026;0002;HT.02-04 BERGERAK SEKITAR SPBE BIMA, JL SULTAN MUH;JL. SULTAN MUHAMMAD SALAHUDIN, DARA, RASANAE;-8.47336111;118.71508333;16/03/2021;15/03/2026;;;;;KOTA BIMA;Balai Monitor SFR Kelas II Mataram;VHF;3. Komrat VHF, Instanssi Pemerintah/Badan Usaha Keperluan Publik, Maritim VHF (137 - 174 MHz)
Land Mobile (private);Standard;JALAN GAJAH MADA BIMA, KOTA BIMA, MPUNDA, NUSA TENGGARA BARAT;NUSA TENGGARA BARAT;KOTA BIMA;00114615;RUMAH SAKIT PKU MUHAMMADIYAH BIMA;037004042019;0703058;Granted;;157.8;157.8;16;36.9897;02103014-000SU/0620192024;0002;HT. 02 - 14 BERGERAK SEKITAR JL. GAJAH MADA BIMA;JALAN GAJAH MADA BIMA;-8.45456111;118.73615;06/05/2019;05/05/2029;;;;;KOTA BIMA;Balai Monitor SFR Kelas II Mataram;VHF;3. Komrat VHF, Instanssi Pemerintah/Badan Usaha Keperluan Publik, Maritim VHF (137 - 174 MHz)
Land Mobile (private);Standard;JL. PAHLAWAN NO. 7 DARA RASANAE BARAT BIMA NTB, KOTA BIMA, RASANAE BARAT, NUSA TENGGARA BARAT;NUSA TENGGARA BARAT;KOTA BIMA;00108626;ULET JAYA WIBOWO, PT.;035424102015;0251931;Granted;;152.65;152.65;16;36.9897;01838823-000SU/0620152020;0001;HT. 01 - 07 BERGERAK SEKITAR PT ULET JAYA BIMA;JL. PAHLAWAN NO. 7 DARA RASANAE BARAT BIMA NTB;-8.46178333;118.72512778;04/11/2015;03/11/2025;;;;;KOTA BIMA;Balai Monitor SFR Kelas II Mataram;VHF;3. Komrat VHF, Instanssi Pemerintah/Badan Usaha Keperluan Publik, Maritim VHF (137 - 174 MHz)
Land Mobile (private);Standard;JL. SULTAN KAHARUDDIN NO.25 RT.08, PARUGA, RASANAE BARAT, BIMA, NUSA TENGGARA BARAT,KOTA BIMA,RASANAE BARAT,NUSA TENGGARA BARAT,PARUGA;NUSA TENGGARA BARAT;KOTA BIMA;4546;PERTAMINA, PT. (PERSERO);034563062024;3425151;Granted;;170.4;170.4;16;45.9794;02879081-000SU/2620242029;0001;BASE 01  FUEL TERMINAL BIMA;JL. SULTAN KAHARUDDIN NO.25 RT.08, PARUGA, RASANAE BARAT, BIMA, NUSA TENGGARA BARAT;-8.47694444;118.71138889;12/07/2024;11/07/2029;;;;;KOTA BIMA;Balai Monitor SFR Kelas II Mataram;VHF;3. Komrat VHF, Instanssi Pemerintah/Badan Usaha Keperluan Publik, Maritim VHF (137 - 174 MHz)
Land Mobile (private);Standard;JL. SULTAN KAHARUDDIN NO.25 RT.08, PARUGA, RASANAE BARAT, BIMA, NUSA TENGGARA BARAT,KOTA BIMA,RASANAE BARAT,NUSA TENGGARA BARAT,PARUGA;NUSA TENGGARA BARAT;KOTA BIMA;4546;PERTAMINA, PT. (PERSERO);034620062024;3426034;Granted;;167.7;167.7;16;45.9794;02879097-000SU/2620242029;0002;BASE 02  FUEL TERMINAL BIMA;JL. SULTAN KAHARUDDIN NO.25 RT.08, PARUGA, RASANAE BARAT, BIMA, NUSA TENGGARA BARAT;-8.47694444;118.71138889;12/07/2024;11/07/2029;;;;;KOTA BIMA;Balai Monitor SFR Kelas II Mataram;VHF;3. Komrat VHF, Instanssi Pemerintah/Badan Usaha Keperluan Publik, Maritim VHF (137 - 174 MHz)
Land Mobile (private);Standard;JL. SULTAN KAHARUDDIN NO.25 RT.08, PARUGA, RASANAE BARAT, BIMA, NUSA TENGGARA BARAT,KOTA BIMA,RASANAE BARAT,NUSA TENGGARA BARAT,PARUGA;NUSA TENGGARA BARAT;KOTA BIMA;4546;PERTAMINA, PT. (PERSERO);034570062024;3425257;Granted;;173.5;173.5;16;45.9794;02879091-000SU/2620242029;0002;BASE 02  FUEL TERMINAL BIMA;JL. SULTAN KAHARUDDIN NO.25 RT.08, PARUGA, RASANAE BARAT, BIMA, NUSA TENGGARA BARAT;-8.47694444;118.71138889;12/07/2024;11/07/2029;;;;;KOTA BIMA;Balai Monitor SFR Kelas II Mataram;VHF;3. Komrat VHF, Instanssi Pemerintah/Badan Usaha Keperluan Publik, Maritim VHF (137 - 174 MHz)
Land Mobile (private);Standard;JALAN SOEKARNO HATTA NO.66 KELURAHAN PENARAGA, KECAMATAN RABA - KOTA BIMA,KOTA BIMA,RABA,NUSA TENGGARA BARAT;NUSA TENGGARA BARAT;KOTA BIMA;00122914;DINAS KESEHATAN KOTA BIMA;039616012024;3051465;Granted;;161.425;166.425;16;45.9794;02824960-000SU/2620242029;0001;BS DINAS KESEHATAN KOTA BIMA;JALAN SOEKARNO HATTA NO.66 KELURAHAN PENARAGA, KECAMATAN RABA - KOTA BIMA;-8.46775;118.75988889;13/02/2024;11/02/2029;;;;;KOTA BIMA;Balai Monitor SFR Kelas II Mataram;VHF;3. Komrat VHF, Instanssi Pemerintah/Badan Usaha Keperluan Publik, Maritim VHF (137 - 174 MHz)
Maritime;Coast Station;JL. SULTAN MUHAMAD SALAHUDDIN, DARA,KOTA BIMA,RASANAE BARAT,NUSA TENGGARA BARAT;NUSA TENGGARA BARAT;KOTA BIMA;00108233;PERTAMINA TRANS KONTINENTAL, PT.;0188311;140/P/SDPPI/2022/2;Granted;;156.8;156.8;7250;0;;0001;BIMA RADIO;JL. SULTAN MUHAMAD SALAHUDDIN, DARA;-8.47777778;118.71138889;31/08/2023;23/06/2027;;;;;KOTA BIMA;Balai Monitor SFR Kelas II Mataram;VHF;3. Komrat VHF, Instanssi Pemerintah/Badan Usaha Keperluan Publik, Maritim VHF (137 - 174 MHz)
Maritime;Coast Station;JL. SULTAN MUHAMAD SALAHUDDIN, DARA,KOTA BIMA,RASANAE BARAT,NUSA TENGGARA BARAT;NUSA TENGGARA BARAT;KOTA BIMA;00108233;PERTAMINA TRANS KONTINENTAL, PT.;0188311;140/P/SDPPI/2022/2;Granted;;156.45;156.8;7250;0;;0001;BIMA RADIO;JL. SULTAN MUHAMAD SALAHUDDIN, DARA;-8.47777778;118.71138889;31/08/2023;23/06/2027;;;;;KOTA BIMA;Balai Monitor SFR Kelas II Mataram;VHF;3. Komrat VHF, Instanssi Pemerintah/Badan Usaha Keperluan Publik, Maritim VHF (137 - 174 MHz)
Maritime;Coast Station;JL. SULTAN MUHAMAD SALAHUDDIN, DARA,KOTA BIMA,RASANAE BARAT,NUSA TENGGARA BARAT;NUSA TENGGARA BARAT;KOTA BIMA;00108233;PERTAMINA TRANS KONTINENTAL, PT.;0188311;140/P/SDPPI/2022/2;Granted;;161.55;156.8;7250;0;;0001;BIMA RADIO;JL. SULTAN MUHAMAD SALAHUDDIN, DARA;-8.47777778;118.71138889;31/08/2023;23/06/2027;;;;;KOTA BIMA;Balai Monitor SFR Kelas II Mataram;VHF;3. Komrat VHF, Instanssi Pemerintah/Badan Usaha Keperluan Publik, Maritim VHF (137 - 174 MHz)
Land Mobile (private);Standard;JALAN GAJAH MADA NO. 90 KELURAHAN PENATOI BIMA, KOTA BIMA, MPUNDA, NUSA TENGGARA BARAT;NUSA TENGGARA BARAT;KOTA BIMA;00116649;DINAS KOMUNIKASI DAN INFORMATIKA KOTA BIMA;039340072020;0934508;Granted;;163.075;168.075;16;45.9794;02316150-000SU/2620202025;0001;BS. KOMINFO KOTA BIMA;JALAN GAJAH MADA NO. 90 KELURAHAN PENATOI BIMA;-8.46029722;118.75642222;06/08/2020;05/08/2025;;;;;KOTA BIMA;Balai Monitor SFR Kelas II Mataram;VHF;3. Komrat VHF, Instanssi Pemerintah/Badan Usaha Keperluan Publik, Maritim VHF (137 - 174 MHz)
Land Mobile (private);Standard;JL. SULTAN HASANUDIN KEL.DARA, RASANAE BARAT, KOTA BIMA, NTB, KOTA BIMA, RASANAE BARAT, NUSA TENGGARA BARAT;NUSA TENGGARA BARAT;KOTA BIMA;00103494;PLN (PERSERO), PT.;031147032020;0871409;Granted;;352.225;352.225;16;45.9794;02256930-000SU/2620202025;0002;19.BS. ULPLTD _UNIT NIU;JL. SULTAN HASANUDIN KEL.DARA, RASANAE BARAT, KOTA BIMA, NTB;-8.49377778;118.71566667;19/03/2020;18/03/2025;;;;;KOTA BIMA;Balai Monitor SFR Kelas II Mataram;UHF;5. Tetap, Bergerak, Marabahaya (300 – 430 MHz)
Land Mobile (private);Standard;JL. LINTAS KOLO - BONTO, ASAKOTA, BIMA, NTB, KOTA BIMA, ASAKOTA, NUSA TENGGARA BARAT;NUSA TENGGARA BARAT;KOTA BIMA;00103494;PLN (PERSERO), PT.;033374042020;0877064;Granted;;352.125;352.125;16;45.9794;02262733-000SU/2620202025;0002;19.BS. GI BONTO;JL. LINTAS KOLO - BONTO, ASAKOTA, BIMA, NTB;-8.41046944;118.69969722;01/04/2020;31/03/2025;;;;;KOTA BIMA;Balai Monitor SFR Kelas II Mataram;UHF;5. Tetap, Bergerak, Marabahaya (300 – 430 MHz)
Land Mobile (private);Standard;JL. LINTAS KERTASARI, KOTA BIMA, MPUNDA, NUSA TENGGARA BARAT;NUSA TENGGARA BARAT;KOTA BIMA;00103494;PLN (PERSERO), PT.;036160122019;0837762;Granted;;359.35;364.35;16;45.9794;02230701-000SU/2620202024;0009;BS. UPK TAMBORA 1;JL. LINTAS KERTASARI;-8.45894444;118.74119444;01/01/2020;31/12/2029;;;;;KOTA BIMA;Balai Monitor SFR Kelas II Mataram;UHF;5. Tetap, Bergerak, Marabahaya (300 – 430 MHz)
Land Mobile (private);Standard;JLN. GAJAH MADA- KEL.RABA, KOTA BIMA, RABA, NUSA TENGGARA BARAT;NUSA TENGGARA BARAT;KOTA BIMA;00103494;PLN (PERSERO), PT.;036130122019;0837763;Granted;;352.45;352.45;16;45.9794;02230705-000SU/2620202024;0001;BS. LINK_GI BIMA;JLN. GAJAH MADA- KEL.RABA;-8.47049444;118.76643611;01/01/2020;31/12/2029;;;;;KOTA BIMA;Balai Monitor SFR Kelas II Mataram;UHF;5. Tetap, Bergerak, Marabahaya (300 – 430 MHz)
Land Mobile (private);Standard;JLN. LINTAS KOLO, KOTA BIMA, ASAKOTA, NUSA TENGGARA BARAT;NUSA TENGGARA BARAT;KOTA BIMA;00103494;PLN (PERSERO), PT.;034369122019;0826863;Granted;;352.05;357.05;16;45.9794;02220811-000SU/2620192024;0002;BS. KP_KOLO;JLN. LINTAS KOLO;-8.37251944;118.72148056;08/12/2019;07/12/2029;;;;;KOTA BIMA;Balai Monitor SFR Kelas II Mataram;UHF;5. Tetap, Bergerak, Marabahaya (300 – 430 MHz)
Land Mobile (private);Standard;JLN. LEWIROWA KEL MONGGONAO, KOTA BIMA, MPUNDA, NUSA TENGGARA BARAT;NUSA TENGGARA BARAT;KOTA BIMA;00103494;PLN (PERSERO), PT.;034519122019;0830204;Granted;;351.1;356.1;16;45.9794;02225085-000SU/2620192024;00016;BS. ULPLTD_BIMA 3;JLN. LEWIROWA KEL MONGGONAO;-8.45891667;118.74397222;16/12/2019;15/12/2029;;;;;KOTA BIMA;Balai Monitor SFR Kelas II Mataram;UHF;5. Tetap, Bergerak, Marabahaya (300 – 430 MHz)
Land Mobile (private);Standard;JLN. SOEKARNO HATTA KEL MONGGONAO, MPUNDA, BIMA KOTA, NTB, KOTA BIMA, MPUNDA, NUSA TENGGARA BARAT;NUSA TENGGARA BARAT;KOTA BIMA;00103494;PLN (PERSERO), PT.;031738072019;0743107;Granted;;359.55;364.55;16;45.9794;02136985-000SU/2620192024;0001;BS. ULP_ BIMA KOTA;JLN. SOEKARNO HATTA KEL MONGGONAO, MPUNDA, BIMA KOTA, NTB;-8.45894444;118.74119444;30/08/2019;29/08/2029;;;;;KOTA BIMA;Balai Monitor SFR Kelas II Mataram;UHF;5. Tetap, Bergerak, Marabahaya (300 – 430 MHz)
Land Mobile (private);Standard;JL. LEWIROWA KEL MONGGONAO, KOTA BIMA, MPUNDA, NUSA TENGGARA BARAT;NUSA TENGGARA BARAT;KOTA BIMA;00103494;PLN (PERSERO), PT.;036803012020;0840741;Granted;;359.1;364.1;16;45.9794;02233943-000SU/2620202025;0002;BS. DCC BIMA;JL. LEWIROWA KEL MONGGONAO;-8.45891667;118.74397222;14/01/2020;13/01/2030;;;;;KOTA BIMA;Balai Monitor SFR Kelas II Mataram;UHF;5. Tetap, Bergerak, Marabahaya (300 – 430 MHz)
Land Mobile (private);Standard;JLN SULTAN HASANUDIN KEL.DARA, RASANAE BARAT, KOTA BIMA, NTB, KOTA BIMA, RASANAE BARAT, NUSA TENGGARA BARAT;NUSA TENGGARA BARAT;KOTA BIMA;00103494;PLN (PERSERO), PT.;031675072019;0745187;Granted;;359.675;364.675;16;45.9794;02139002-000SU/2620192024;0001;BS. ULPLTD UNIT NIU;JLN SULTAN HASANUDIN KEL.DARA, RASANAE BARAT, KOTA BIMA, NTB;-8.49377778;118.71566667;05/09/2019;04/09/2029;;;;;KOTA BIMA;Balai Monitor SFR Kelas II Mataram;UHF;5. Tetap, Bergerak, Marabahaya (300 – 430 MHz)
Land Mobile (private);Standard;JALAN GAJAH MADA NO. 100 KEL. PENATOI, KOTA BIMA, MPUNDA, NUSA TENGGARA BARAT;NUSA TENGGARA BARAT;KOTA BIMA;00115018;DINAS KOMUNIKASI INFORMASI DAN STATISTIK BIMA;033452082019;0733561;Granted;;161.175;166.175;16;45.9794;02126852-000SU/2620192024;0001;BS. MPUNDA;JALAN GAJAH MADA NO. 100 KEL. PENATOI;-8.45972222;118.75444444;06/08/2019;05/08/2029;;;;;KOTA BIMA;Balai Monitor SFR Kelas II Mataram;VHF;3. Komrat VHF, Instanssi Pemerintah/Badan Usaha Keperluan Publik, Maritim VHF (137 - 174 MHz)
Land Mobile (private);Standard;JALAN GAJAH MADA NO.51 KOTA BIMA, KOTA BIMA, RABA, NUSA TENGGARA BARAT;NUSA TENGGARA BARAT;KOTA BIMA;00111851;BADAN PENANGGULANGAN BENCANA DAERAH PEMERINTAH KOTA BIMA;032298092017;0496876;Granted;;164.775;169.775;16;45.9794;01963176-000SU/2620172022;0001;BS. BPBD KOTA BIMA;JALAN GAJAH MADA NO.51 KOTA BIMA;-8.46533333;118.76352778;09/10/2017;07/10/2027;;;;;KOTA BIMA;Balai Monitor SFR Kelas II Mataram;VHF;3. Komrat VHF, Instanssi Pemerintah/Badan Usaha Keperluan Publik, Maritim VHF (137 - 174 MHz)
Broadcast;FM;KOTA BIMA;NUSA TENGGARA BARAT;KOTA BIMA;00113428;RADIO PLANET DHARMA MEDHIA CITRA, PT.;012154082018;0626823;Granted;;102.4;;300;66;02050525-000SU/2020182023;0001;PLANET DMC FM;Jln. Piere Tendean Bukit Kosambo mande 3;-8.47305556;118.74944444;28/08/2018;27/08/2028;;;;;KOTA BIMA;Balai Monitor SFR Kelas II Mataram;VHF;1. Radio FM, DRM  (87 – 108 MHz)
Land Mobile (private);Standard;JLN. LEWIROWA KEL MONGGONAO, MPUNDA, KOTA BIMA, NTB, KOTA BIMA, MPUNDA, NUSA TENGGARA BARAT;NUSA TENGGARA BARAT;KOTA BIMA;00103494;PLN (PERSERO), PT.;031675072019;0745187;Granted;;364.675;359.675;16;48.0206;02139022-000SU/2620192024;00021;REP. SITE KIT BIMA;JLN. LEWIROWA KEL MONGGONAO, MPUNDA, KOTA BIMA, NTB;-8.45891667;118.74397222;05/09/2019;04/09/2029;;;;;KOTA BIMA;Balai Monitor SFR Kelas II Mataram;UHF;5. Tetap, Bergerak, Marabahaya (300 – 430 MHz)
Land Mobile (private);Standard;JALAN SOEKARNO HATTA NO.66 KELURAHAN PENARAGA, KECAMATAN RABA - KOTA BIMA,KOTA BIMA,RABA,NUSA TENGGARA BARAT;NUSA TENGGARA BARAT;KOTA BIMA;00122914;DINAS KESEHATAN KOTA BIMA;039616012024;3051465;Granted;;166.425;161.425;16;48.0206;02824959-000SU/2620242029;0002;REP DINAS KESEHATAN KOTA BIMA;JALAN SOEKARNO HATTA NO.66 KELURAHAN PENARAGA, KECAMATAN RABA - KOTA BIMA;-8.46775;118.75988889;13/02/2024;11/02/2029;;;;;KOTA BIMA;Balai Monitor SFR Kelas II Mataram;VHF;3. Komrat VHF, Instanssi Pemerintah/Badan Usaha Keperluan Publik, Maritim VHF (137 - 174 MHz)
Land Mobile (private);Standard;JLN. LEWIROWA KEL MONGGONAO, KOTA BIMA, MPUNDA, NUSA TENGGARA BARAT;NUSA TENGGARA BARAT;KOTA BIMA;00103494;PLN (PERSERO), PT.;034519122019;0830204;Granted;;356.1;351.1;16;48.0206;02225097-000SU/2620192024;00028;REP. SITE_KIT BIMA;JLN. LEWIROWA KEL MONGGONAO;-8.45891667;118.74397222;16/12/2019;15/12/2029;;;;;KOTA BIMA;Balai Monitor SFR Kelas II Mataram;UHF;5. Tetap, Bergerak, Marabahaya (300 – 430 MHz)
Land Mobile (private);Standard;JALAN TERUSAN BUNG HATTA - SELAPARANG,KOTA MATARAM,SELAPRANG,NUSA TENGGARA BARAT;NUSA TENGGARA BARAT;KOTA MATARAM;00123284;TALIWANG OMAH COBEK, CV.;032160042024;3210050;Granted;;433.9;433.9;25;28.45098;02845683-000SU/2620242029;0001;HT. 01 BERGERAK DISEKITAR KECAMATAN SELAPARANG;JALAN TERUSAN BUNG HATTA - SELAPARANG;-8.56952778;116.11836111;03/04/2024;02/04/2029;;;;;KOTA MATARAM;Balai Monitor SFR Kelas II Mataram;UHF;6. Komrad UHF (430 – 460 MHz)
Land Mobile (private);Standard;JALAN SRIWIJAYA NO. 95 MATARAM (KURA - KURA WATER PARK),KOTA MATARAM,MATARAM,NUSA TENGGARA BARAT,PAGESANGAN TIMUR;NUSA TENGGARA BARAT;KOTA MATARAM;00114589;CV. MATARAM CITRA NUSA;030546102024;3579762;Granted;;152.025;152.025;25;29.34498;02931308-000SU/2620242029;0001;HT. 01 BERGERAK SEKITAR KECAMATAN MATARAM;JALAN SRIWIJAYA NO. 95 MATARAM (KURA - KURA WATER PARK);-8.59513889;116.11605556;05/11/2024;04/11/2029;;;;;KOTA MATARAM;Balai Monitor SFR Kelas II Mataram;VHF;3. Komrat VHF, Instanssi Pemerintah/Badan Usaha Keperluan Publik, Maritim VHF (137 - 174 MHz)
Land Mobile (private);Standard;;NUSA TENGGARA BARAT;KOTA MATARAM;00124286;HOME CENTER INDONESIA RETAIL, PT.;034369012025;3661495;Granted;;352.55;;16;33.0103;02948003-000SU/0620252030;0002;HT. 02 - 06 BERGERAK SEKITAR JL. SRIWIJAYA;LOMBOK EPICENTRUM MALL, JL. SRIWIJAYA NO.333, PAGESANGAN TIMUR, MATARAM, MATARAM CITY, WEST NUSA TENGGARA 83127;-8.5935;116.10475;21/01/2025;20/01/2030;;;;;KOTA MATARAM;Balai Monitor SFR Kelas II Mataram;UHF;5. Tetap, Bergerak, Marabahaya (300 – 430 MHz)
Land Mobile (private);Standard;JALAN GAJAH MADA NO. 170 SEKAEBELA- JEMPONG BARU,KOTA MATARAM,SEKARBELA,NUSA TENGGARA BARAT;NUSA TENGGARA BARAT;KOTA MATARAM;00122378;VARINDO LOMBOK INTI, PT.;034413102023;2836783;Granted;;433.2;433.2;25;33.0103;02762238-000SU/2620232028;0001;HT. 01 BERGERAK DISEKITAR KECAMATAN SEKARBELA - JEMPONG BARU;JALAN GAJAH MADA NO. 170 SEKAEBELA- JEMPONG BARU;-8.61722222;116.09783333;20/10/2023;18/10/2028;;;;;KOTA MATARAM;Balai Monitor SFR Kelas II Mataram;UHF;6. Komrad UHF (430 – 460 MHz)
Land Mobile (private);Standard;TOKO MR DIY LOMBOK EPICENTRUM JL. SRIWIJAYA NO 333, KOTA MATARAM, MATARAM, NUSA TENGGARA BARAT;NUSA TENGGARA BARAT;KOTA MATARAM;00115635;DAYA INDAH YASA, PT.;035472042023;1824151;Granted;;406.8;406.8;25;36.0206;02693272-000SU/0620232028;0002;HT. 01 BERGERAK DI SEKITAR JL SRIWIJAYA;TOKO MR DIY LOMBOK EPICENTRUM JL. SRIWIJAYA NO 333;-8.59480556;116.10461111;18/04/2023;17/04/2028;;;;;KOTA MATARAM;Balai Monitor SFR Kelas II Mataram;UHF;5. Tetap, Bergerak, Marabahaya (300 – 430 MHz)
Land Mobile (private);Standard;JL. PEJANGGIK 115 MATARAM, KOTA MATARAM, CAKRANEGARA, NUSA TENGGARA BARAT;NUSA TENGGARA BARAT;KOTA MATARAM;00110526;RISA, PT./RS. RISA SENTRA MEDIKA, PT.;032430092017;0496696;Granted;;153;153;16;36.9897;01963079-000SU/0620172022;0002;HT 2 - 10 RUMAH SAKIT RISA SENTRA MEDIKA;JL. PEJANGGIK 115 MATARAM;-8.58722222;116.12266667;09/10/2017;07/10/2027;;;;;KOTA MATARAM;Balai Monitor SFR Kelas II Mataram;VHF;3. Komrat VHF, Instanssi Pemerintah/Badan Usaha Keperluan Publik, Maritim VHF (137 - 174 MHz)
Land Mobile (private);Standard;JALAN SRIWIJAYA NO 81 MATARAM, KOTA MATARAM, MATARAM, NUSA TENGGARA BARAT;NUSA TENGGARA BARAT;KOTA MATARAM;00121103;CV. MULTI KARYA;030569022023;1764255;Granted;;150.375;150.375;25;36.9897;02656074-000SU/0620232028;0001;HT 01 BERGERAK SEKITAR JALAN SRIWIJAYA NO 81 MATARAM;JALAN SRIWIJAYA NO 81 MATARAM;-8.59488889;116.11436111;08/02/2023;07/02/2028;;;;;KOTA MATARAM;Balai Monitor SFR Kelas II Mataram;VHF;3. Komrat VHF, Instanssi Pemerintah/Badan Usaha Keperluan Publik, Maritim VHF (137 - 174 MHz)
Land Mobile (private);Standard;null,KOTA MATARAM,SELAPRANG,NUSA TENGGARA BARAT,DASAN AGUNG BARU;NUSA TENGGARA BARAT;KOTA MATARAM;00124443;NASRULLAH, PERUSAHAAN PERURANGAN;032945122024;3630611;Granted;;432.775;432.775;25;36.9897;02939378-000SU/0620242025;0002;HT 02 - 5 BERGERAK SEKITAR JL. GUNUNG TAMBORA RUKO NO 6 MATARAM;;-8.58397222;116.09352778;16/12/2024;15/12/2025;;;;;KOTA MATARAM;Balai Monitor SFR Kelas II Mataram;UHF;6. Komrad UHF (430 – 460 MHz)
Land Mobile (private);Standard;JALAN PANCA USAHA NO 7A, KOTA MATARAM, CAKRANEGARA, NUSA TENGGARA BARAT;NUSA TENGGARA BARAT;KOTA MATARAM;00121025;YAOYA BERKAT SEJATI, PT.;039875012023;1758262;Granted;;407;407;25;36.9897;02653642-000SU/0620232028;0002;HT 02 - 8 BERGERAK SEKITAR  JALAN PANCA USAHA NO 7A;JALAN PANCA USAHA NO 7A;-8.58872222;116.11752778;25/01/2023;24/01/2028;;;;;KOTA MATARAM;Balai Monitor SFR Kelas II Mataram;UHF;5. Tetap, Bergerak, Marabahaya (300 – 430 MHz)
Land Mobile (private);Standard;JALAN PEJANGGIK NO. 8 CAKRANEG, KOTA MATARAM, CAKRANEGARA, NUSA TENGGARA BARAT;NUSA TENGGARA BARAT;KOTA MATARAM;00103412;PEJANGGIK CAKRA BUANA, PT.;030171042022;1306912;Granted;;352.175;352.175;25;36.9897;02556959-000SU/0620222027;0002;HT 02 - 8 BERGERAK SEKITAR  JALAN PEJANGGIK NO. 8 CAKRANEG;JALAN PEJANGGIK NO. 8 CAKRANEG;-8.5869;116.12872222;13/05/2022;18/04/2027;;;;;KOTA MATARAM;Balai Monitor SFR Kelas II Mataram;UHF;5. Tetap, Bergerak, Marabahaya (300 – 430 MHz)
Land Mobile (private);Standard;JL. SANDUBAYA  BLOK U.39, KOTA MATARAM, NUSA TENGGARA BARAT, SANDUBAY;NUSA TENGGARA BARAT;KOTA MATARAM;00108005;GAMANA MAKAPHALA, PT.;034219062015;0198558;Granted;;169.1;169.1;16;36.99;01820455-000SU/0620152020;0001;HT. 01-05 BERGERAK SEKITAR JL. SANDUBAYA;JL. SANDUBAYA  BLOK U.39;-8.59333333;116.15636111;09/07/2015;08/07/2025;;;;;KOTA MATARAM;Balai Monitor SFR Kelas II Mataram;VHF;3. Komrat VHF, Instanssi Pemerintah/Badan Usaha Keperluan Publik, Maritim VHF (137 - 174 MHz)
Land Mobile (private);Standard;JL. SRIWIJAYA NO. 132 CAKARANEGARA MATARAM NTB, KOTA MATARAM, CAKRANEGARA, NUSA TENGGARA BARAT;NUSA TENGGARA BARAT;KOTA MATARAM;00109026;CV. PURI INDAH;036119122015;0347150;Granted;;353.825;353.825;16;36.9897;01851657-000SU/0620162021;0002;HT. 02-10 BERGERAK SEKITAR PT PURI INDAH;JL. SRIWIJAYA NO. 132 CAKARANEGARA MATARAM NTB;-8.59316667;116.11905556;20/01/2016;19/01/2026;;;;;KOTA MATARAM;Balai Monitor SFR Kelas II Mataram;UHF;5. Tetap, Bergerak, Marabahaya (300 – 430 MHz)
Land Mobile (private);Standard;PAGUTAN RAYA JL. BUNG KARNO NO. 3 MATARAM, KOTA MATARAM, MATARAM, NUSA TENGGARA BARAT;NUSA TENGGARA BARAT;KOTA MATARAM;00112848;RSUD KOTA MATARAM;039573032018;0588568;Granted;;160.275;165.275;16;38.9897;02021606-000SU/0620182023;0003;MU .1 - 10 RSUD KOTA MATARAM;PAGUTAN RAYA JL. BUNG KARNO NO. 3 MATARAM;-8.59976111;116.11455;09/04/2018;08/04/2028;;;;;KOTA MATARAM;Balai Monitor SFR Kelas II Mataram;VHF;3. Komrat VHF, Instanssi Pemerintah/Badan Usaha Keperluan Publik, Maritim VHF (137 - 174 MHz)
Land Mobile (private);Standard;;NUSA TENGGARA BARAT;KOTA MATARAM;00119196;ANDALAN MEDIA TAMA, PT.;031214032024;3176295;Granted;;352.4;352.4;25;36.9897;02833612-000SU/0620242029;0002;HT 02-06 BERGERAK SEKITAR JL. CILINAYA, KEC. CAKRANEGARA;JL. CILINAYA NO. 7, KECAMATAN CAKRANEGARA, KOTA MATARAM, NUSA TENGGARA BARAT;-8.587;116.12;08/03/2024;07/03/2029;;;;;KOTA MATARAM;Balai Monitor SFR Kelas II Mataram;UHF;5. Tetap, Bergerak, Marabahaya (300 – 430 MHz)
Land Mobile (private);Standard;JL. SRIWIJAYA NO. 333, KOTA MATARAM, MATARAM, NUSA TENGGARA BARAT;NUSA TENGGARA BARAT;KOTA MATARAM;00108894;SRIWIJAYA PROPINDO UTAMA, PT.;036944022016;0358119;Granted;;152.475;157.525;16;36.9897;01859129-000SU/0620162021;0002;HT. 01-40 BERGERAK SEKITAR JL. SRIWIJAYA NO. 333;JL. SRIWIJAYA NO. 333;-8.59291667;116.10488056;07/03/2016;06/03/2026;;;;;KOTA MATARAM;Balai Monitor SFR Kelas II Mataram;VHF;3. Komrat VHF, Instanssi Pemerintah/Badan Usaha Keperluan Publik, Maritim VHF (137 - 174 MHz)
Land Mobile (private);Standard;null,KOTA MATARAM,CAKRANEGARA,NUSA TENGGARA BARAT,CAKRANEGARA BARAT;NUSA TENGGARA BARAT;KOTA MATARAM;00121047;PERUSAHAAN PERORANGAN HARJANTO;030318102024;3576361;Granted;;408.3;408.3;25;36.9897;02929750-000SU/2620242025;0001;HT 01 BERGERAK SEKITAR;;-8.58669444;116.12222222;25/10/2024;24/10/2025;;;;;KOTA MATARAM;Balai Monitor SFR Kelas II Mataram;UHF;5. Tetap, Bergerak, Marabahaya (300 – 430 MHz)
Land Mobile (private);Standard;JALAN MAJAPAHIT NO. 62 KECAMATAN SELAPARANG KOTA MATARAM (UNIVERSITAS MATARAM),KOTA MATARAM,SEKARBELA,NUSA TENGGARA BARAT,KEKALIK JAYA;NUSA TENGGARA BARAT;KOTA MATARAM;00124470;INTAN SELARAS PERTIWI, PT.;033095122024;3635651;Granted;;431.525;431.525;25;36.9897;02939210-000SU/2620242029;0001;HT.01 BERGERAK DISEKITAR KECAMATAN SELAPARANG;JALAN MAJAPAHIT NO. 62 KECAMATAN SELAPARANG KOTA MATARAM (UNIVERSITAS MATARAM);-8.58955556;116.09266667;16/12/2024;15/12/2029;;;;;KOTA MATARAM;Balai Monitor SFR Kelas II Mataram;UHF;6. Komrad UHF (430 – 460 MHz)
Land Mobile (private);Standard;JALAN UDAYANA NO. 16 MATARAM (PRIME PARK HOTEL & CONVENTION LOMBOK),KOTA MATARAM,SELAPRANG,NUSA TENGGARA BARAT,MONJOK BARAT;NUSA TENGGARA BARAT;KOTA MATARAM;00104501;PP PROPERTI TBK. (PRIME PARK HOTEL BANDUNG), PT.;030880112024;3590643;Granted;;407.125;407.125;25;36.9897;02934618-000SU/2620242029;0001;HT. 01 BERGERAK SEKITAR KECAMATAN SELAPARANG;JALAN UDAYANA NO. 16 MATARAM (PRIME PARK HOTEL & CONVENTION LOMBOK);-8.57655556;116.10261111;18/11/2024;17/11/2029;;;;;KOTA MATARAM;Balai Monitor SFR Kelas II Mataram;UHF;5. Tetap, Bergerak, Marabahaya (300 – 430 MHz)
Land Mobile (private);Standard;JALAN SRIWIJAYA NO. 333 (FUNTOPIA EPICENTRUM MALL) MATARAM,KOTA MATARAM,MATARAM,NUSA TENGGARA BARAT,PUNIA;NUSA TENGGARA BARAT;KOTA MATARAM;00124511;MULIA GAMESINDO, CV.;033426122024;3641446;Granted;;433.85;433.85;16;36.9897;02942087-000SU/2620242029;0001;HT.01 BERGERAK SEKITAR KECAMATAN MATARAM;JALAN SRIWIJAYA NO. 333 (FUNTOPIA EPICENTRUM MALL) MATARAM;-8.59375;116.10452778;27/12/2024;26/12/2029;;;;;KOTA MATARAM;Balai Monitor SFR Kelas II Mataram;UHF;6. Komrad UHF (430 – 460 MHz)
Land Mobile (private);Standard;JALAN MAJAPAHIT NO. 54 B - MATARAM,KOTA MATARAM,SELAPRANG,NUSA TENGGARA BARAT,GOMONG;NUSA TENGGARA BARAT;KOTA MATARAM;00124437;AL HUNAFA' LOMBOK, YAYASAN;032679122024;3625399;Granted;;408.875;408.875;25;36.9897;02938290-000SU/2620242029;0001;HT. 01 BERGERAK DISEKITAR KECAMATAN MATARAM;JALAN MAJAPAHIT NO. 54 B - MATARAM;-8.58955556;116.09513889;10/12/2024;09/12/2029;;;;;KOTA MATARAM;Balai Monitor SFR Kelas II Mataram;UHF;5. Tetap, Bergerak, Marabahaya (300 – 430 MHz)
Land Mobile (private);Standard;;NUSA TENGGARA BARAT;KOTA MATARAM;00105058;BANUA UTAMA RAYA;034481012025;3663073;Granted;;407.175;;16;36.9897;02948107-000SU/0620252030;0002;HT. 02 - 08 BERGERAK DISEKITAR KECAMATAN SELAPARANG;JALAN JENDERAL NO. 22 REMBIGA (SAME HOTEL);-8.56247222;116.11572222;22/01/2025;21/01/2030;;;;;KOTA MATARAM;Balai Monitor SFR Kelas II Mataram;UHF;5. Tetap, Bergerak, Marabahaya (300 – 430 MHz)
Land Mobile (private);Standard;;NUSA TENGGARA BARAT;KOTA MATARAM;00124564;KARYA IMAJINASI NUSANTARA, CV.;033849012025;3649707;Granted;;430.6;;25;36.9897;02942918-000SU/0620252030;0002;HT.01-40 BERGERAK SEKITAR JALAN ADI SUCIPTO;JALAN ADI SUCIPTO, GANG MELATI NO.1A - PELEMBAK;-8.56619722;116.08665556;07/01/2025;06/01/2030;;;;;KOTA MATARAM;Balai Monitor SFR Kelas II Mataram;UHF;6. Komrad UHF (430 – 460 MHz)
Land Mobile (private);Standard;Jl. Sriwijaya No.333 Lt 1 Unit E1, Punia, Kec. Mataram, Kota Mataram, Nusa Tenggara Bar. 83127, Indonesia,KOTA MATARAM,MATARAM,NUSA TENGGARA BARAT;NUSA TENGGARA BARAT;KOTA MATARAM;00120567;KKV GROUP INDONESIA, PT.;030336022024;3069029;Granted;;407.275;407.275;25;36.9897;02826922-000SU/2620242029;0001;HT. 01 BERGERAK SEKITAR JL. SRIWIJAYA NO.333, MATARAM;Jl. Sriwijaya No.333 Lt 1 Unit E1, Punia, Kec. Mataram, Kota Mataram, Nusa Tenggara Bar. 83127, Indonesia;-8.594;116.10455556;19/02/2024;17/02/2029;;;;;KOTA MATARAM;Balai Monitor SFR Kelas II Mataram;UHF;5. Tetap, Bergerak, Marabahaya (300 – 430 MHz)
Land Mobile (private);Standard;JALAN TGH SALEH HAMBALI NO. 8 KECAMATAN SANDUBAYA, KOTA MATARAM, SANDUBAYA, NUSA TENGGARA BARAT;NUSA TENGGARA BARAT;KOTA MATARAM;00116578;CV. SINTA SURYA MAKMUR;038089072020;0922805;Granted;;155.05;155.05;16;36.9897;02305671-000SU/0620202025;0002;HT. 02-05 BERGERAK DISEKITAR KECAMATAN SANDUBAYA;JALAN TGH SALEH HAMBALI NO. 8 KECAMATAN SANDUBAYA;-8.61461111;116.13377778;11/07/2020;10/07/2025;;;;;KOTA MATARAM;Balai Monitor SFR Kelas II Mataram;VHF;3. Komrat VHF, Instanssi Pemerintah/Badan Usaha Keperluan Publik, Maritim VHF (137 - 174 MHz)
Land Mobile (private);Standard;JALAN SANDUBAYA MANDALIKA BLOK AA NOMOR 17 - 20 BERTAIS,KOTA MATARAM,SANDUBAYA,NUSA TENGGARA BARAT,BERTAIS;NUSA TENGGARA BARAT;KOTA MATARAM;00123736;UTAMA SIMPANG PLASTINDO, CV.;036333082024;3476540;Granted;;433.3;433.3;16;36.9897;02887650-000SU/2620242029;0001;HT. 01 BERGERAK DISEKITAR KECAMATAN SANDUBAYA;JALAN SANDUBAYA MANDALIKA BLOK AA NOMOR 17 - 20 BERTAIS;-8.59519444;116.15380556;05/08/2024;04/08/2029;;;;;KOTA MATARAM;Balai Monitor SFR Kelas II Mataram;UHF;6. Komrad UHF (430 – 460 MHz)
Land Mobile (private);Standard;;NUSA TENGGARA BARAT;KOTA MATARAM;00110479;ENVIROMATE TECHNOLOGY INTERNATIONAL, PT.;036712082024;3489085;Granted;;150.825;150.825;16;36.9897;02903853-000SU/0620242029;0002;HT.02 - 11 BERGERAK SEKITAR JL. ARYA BANJAR GETAS;JALAN ARYA BANJAR GETAS, KEL. TANJUNG KARANG PERMAI, KEC. SEKARBELA;-8.58838889;116.07444444;16/08/2024;15/08/2029;;;;;KOTA MATARAM;Balai Monitor SFR Kelas II Mataram;VHF;3. Komrat VHF, Instanssi Pemerintah/Badan Usaha Keperluan Publik, Maritim VHF (137 - 174 MHz)
Broadcast;FM;KOTA MATARAM;NUSA TENGGARA BARAT;KOTA MATARAM;1035;LEMBAGA PENYIARAN PUBLIK RADIO REPUBLIK INDONESIA;018816072020;0926611;Granted;;89.2;;300;72.2897;02308577-000SU/2020202025;0001;LPP RRI MATARAM;JL. LANGKO NO. 83, TAMAN SARI;-8.57832222;116.08514167;21/07/2020;20/07/2025;;;;;KOTA MATARAM;Balai Monitor SFR Kelas II Mataram;VHF;1. Radio FM, DRM  (87 – 108 MHz)
Land Mobile (private);Standard;JALAN TERUSAN BUNG HATTA - SELAPARANG (PERUMAHAN GRAND NATURA),KOTA MATARAM,SELAPRANG,NUSA TENGGARA BARAT;NUSA TENGGARA BARAT;KOTA MATARAM;00122378;VARINDO LOMBOK INTI, PT.;034693102023;2856544;Granted;;432.85;432.85;12.5;36.9897;02763626-000SU/2620232028;0001;HT. 01 BERGERAK DISEKITAR KECAMATAN SELAPARANG;JALAN TERUSAN BUNG HATTA - SELAPARANG (PERUMAHAN GRAND NATURA);-8.56722222;116.11369444;24/10/2023;22/10/2028;;;;;KOTA MATARAM;Balai Monitor SFR Kelas II Mataram;UHF;6. Komrad UHF (430 – 460 MHz)
Land Mobile (private);Standard;JALAN PEJANGGIK NO. 115 CAKRANEGARA - MATARAM,KOTA MATARAM,CAKRANEGARA,NUSA TENGGARA BARAT;NUSA TENGGARA BARAT;KOTA MATARAM;00110526;RISA, PT./RS. RISA SENTRA MEDIKA, PT.;031078082023;2642420;Granted;;151.725;151.725;16;36.9897;02745781-000SU/0620232028;0002;HT 02 - 10 BERGERAK SEKITAR;JALAN PEJANGGIK NO. 115 CAKRANEGARA - MATARAM;-8.58722222;116.12266667;31/08/2023;29/08/2028;;;;;KOTA MATARAM;Balai Monitor SFR Kelas II Mataram;VHF;3. Komrat VHF, Instanssi Pemerintah/Badan Usaha Keperluan Publik, Maritim VHF (137 - 174 MHz)
Land Mobile (private);Standard;;NUSA TENGGARA BARAT;KOTA MATARAM;1089;BADAN METEOROLOGI, KLIMATOLOGI DAN GEOFISIKA;031381082023;2695356;Granted;;154.15;159.15;16;36.9897;02746047-000SU/0620232028;0002;HT 01-02 BERGERAK SEKITAR STASIUN GEOFISIKA MATARAM;Jl. Adi Sucipto No.10, Rembiga, Kec. Selaparang, Kota Mataram, Nusa Tenggara Bar. 83124;-8.56403056;116.0984;31/08/2023;29/08/2028;;;;;KOTA MATARAM;Balai Monitor SFR Kelas II Mataram;VHF;3. Komrat VHF, Instanssi Pemerintah/Badan Usaha Keperluan Publik, Maritim VHF (137 - 174 MHz)
Land Mobile (private);Standard;JL. DR. SOEDJONO LINGKAR SELATAN, KELURAHAN JEMPONG BARU, KECAMATAN SEKARBELA, PROVINSI NUSA TENGGARA BARAT, 83115,KOTA MATARAM,SEKARBELA,NUSA TENGGARA BARAT;;KOTA MATARAM;00117915;MASSINDO SOLARIS NUSANTARA, PT.;035974052023;1927067;Granted;;406.7;406.7;25;36.9897;02697861-000SU/2620232028;0001;HT 01 BERGERAK SEKITAR;JL. DR. SOEDJONO LINGKAR SELATAN, KELURAHAN JEMPONG BARU, KECAMATAN SEKARBELA, PROVINSI NUSA TENGGARA BARAT, 83115;-8.61988889;116.09866667;29/05/2023;27/05/2028;;;;;KOTA MATARAM;Balai Monitor SFR Kelas II Mataram;UHF;5. Tetap, Bergerak, Marabahaya (300 – 430 MHz)
Land Mobile (private);Standard;JALAN ADI SUCIPTO NO. 13B, KOTA MATARAM, AMPENAN, NUSA TENGGARA BARAT;NUSA TENGGARA BARAT;KOTA MATARAM;00121310;KANTOR KESEHATAN PELABUHAN KELAS II MATARAM;034145032023;1805444;Granted;;406.6;406.6;25;36.9897;02683467-000SU/0620232028;0001;HT 01 BERGERAK SEKITAR JALAN ADI SUCIPTO NO. 13B;JALAN ADI SUCIPTO NO. 13B;-8.56463889;116.10102778;06/04/2023;04/04/2028;;;;;KOTA MATARAM;Balai Monitor SFR Kelas II Mataram;UHF;5. Tetap, Bergerak, Marabahaya (300 – 430 MHz)
Land Mobile (private);Standard;MR.DIY RUKO REMBIGA SELAPARANG, JL TERUSAN BUNG HATTA RUKO NO. 1, KOTA MATARAM, SELAPRANG, NUSA TENGGARA BARAT;NUSA TENGGARA BARAT;KOTA MATARAM;00115635;DAYA INDAH YASA, PT.;035221042023;1820596;Granted;;406.9;406.9;16;36.9897;02685355-000SU/0620232028;0002;HT. 01-02 BERGERAK DISEKITAR JL. TERUSAN BUNG HATA;MR.DIY RUKO REMBIGA SELAPARANG, JL TERUSAN BUNG HATTA RUKO NO. 1;-8.56416667;116.11925;12/04/2023;11/04/2028;;;;;KOTA MATARAM;Balai Monitor SFR Kelas II Mataram;UHF;5. Tetap, Bergerak, Marabahaya (300 – 430 MHz)
Land Mobile (private);Standard;BERGERAK SEKITAR BANDARA UDARA LOMBOK,KOTA MATARAM.SELAPRANG,NUSA TENGGARA BARAT, KOTA MATARAM, SELAPRANG, NUSA TENGGARA BARAT;NUSA TENGGARA BARAT;KOTA MATARAM;00103277;LION MENTARI AIRLINES, PT.;034663112022;1651930;Granted;;352.775;352.775;16;36.9897;02623630-000SU/0620222027;0001;HT.01 BERGERAK SEKITAR BANDARA  UDARA LOMBOK (LOP);BERGERAK SEKITAR BANDARA UDARA LOMBOK,KOTA MATARAM.SELAPRANG,NUSA TENGGARA BARAT;-8.56264167;116.10265;29/11/2022;28/11/2027;;;;;KOTA MATARAM;Balai Monitor SFR Kelas II Mataram;UHF;5. Tetap, Bergerak, Marabahaya (300 – 430 MHz)
Land Mobile (private);Standard;JALAN UDAYANA NO. 22 MATARAM, KOTA MATARAM, SELAPRANG, NUSA TENGGARA BARAT;NUSA TENGGARA BARAT;KOTA MATARAM;00103877;BADAN PEMERIKSA KEUANGAN RI PERWAKILAN PROVINSI NTB;030515092022;1487055;Granted;;159.925;159.925;25;36.9897;02601779-000SU/0620222027;0001;HT 01 BERGERAK SEKITAR JALAN UDAYANA NO. 22 MATARAM;JALAN UDAYANA NO. 22 MATARAM;-8.57086111;116.10355556;13/09/2022;12/09/2027;;;;;KOTA MATARAM;Balai Monitor SFR Kelas II Mataram;VHF;3. Komrat VHF, Instanssi Pemerintah/Badan Usaha Keperluan Publik, Maritim VHF (137 - 174 MHz)
Land Mobile (private);Standard;JALAN PEJANGGIK NO. 32 MATARAM, KOTA MATARAM, SELAPRANG, NUSA TENGGARA BARAT;NUSA TENGGARA BARAT;KOTA MATARAM;00103232;METRO LOMBOK ASRI, PT.;030591092022;1550820;Granted;;352.125;352.125;25;36.9897;02609020-000SU/0620222027;0001;HT 01 BERGERAK SEKITAR JALAN PEJANGGIK NO. 32 MATARAM;JALAN PEJANGGIK NO. 32 MATARAM;-8.58188889;116.10758333;06/10/2022;05/10/2027;;;;;KOTA MATARAM;Balai Monitor SFR Kelas II Mataram;UHF;5. Tetap, Bergerak, Marabahaya (300 – 430 MHz)
Land Mobile (private);Standard;JALAN A.A GEDE NGURAH NO. 128, KOTA MATARAM, CAKRANEGARA, NUSA TENGGARA BARAT;NUSA TENGGARA BARAT;KOTA MATARAM;00120250;KOKOH MANDIRI SEJAHTERA, PT.;037542082022;1400999;Granted;;406.775;406.775;25;36.9897;02586856-000SU/0620222027;0001;HT 01 BERGERAK SEKITAR JALAN A.A GEDE NGURAH NO. 128;JALAN A.A GEDE NGURAH NO. 128;-8.59810833;116.12935;09/08/2022;08/08/2027;;;;;KOTA MATARAM;Balai Monitor SFR Kelas II Mataram;UHF;5. Tetap, Bergerak, Marabahaya (300 – 430 MHz)
Land Mobile (private);Standard;JALAN BUNG KARNO KEL CILINAYA, KOTA MATARAM, CAKRANEGARA, NUSA TENGGARA BARAT;NUSA TENGGARA BARAT;KOTA MATARAM;00119873;CV. HARAPAN KITA;033289062022;1340391;Granted;;406.65;406.65;25;36.9897;02568084-000SU/0620222027;0002;HT 02 - 4 BERGERAK SEKITAR  JALAN BUNG KARNO KEL CILINAYA;JALAN BUNG KARNO KEL CILINAYA;-8.59041667;116.11663889;14/06/2022;14/06/2027;;;;;KOTA MATARAM;Balai Monitor SFR Kelas II Mataram;UHF;5. Tetap, Bergerak, Marabahaya (300 – 430 MHz)
Land Mobile (private);Standard;JALAN UDAYANA NO. 11 MATARAM, KOTA MATARAM, SELAPRANG, NUSA TENGGARA BARAT;NUSA TENGGARA BARAT;KOTA MATARAM;00119624;SEKRETARIAT DPRD PROVINSI NTB;039416032022;1294277;Granted;;406.7;406.7;25;36.9897;02551542-000SU/0620222027;0001;HT 01 BERGERAK SEKITAR JALAN UDAYANA NO. 11 MATARAM;JALAN UDAYANA NO. 11 MATARAM;-8.57756389;116.1016;04/04/2022;03/04/2027;;;;;KOTA MATARAM;Balai Monitor SFR Kelas II Mataram;UHF;5. Tetap, Bergerak, Marabahaya (300 – 430 MHz)
Land Mobile (private);Standard;JALAN ISMAIL MARZUKI NO. 20, KOTA MATARAM, CAKRANEGARA, NUSA TENGGARA BARAT;NUSA TENGGARA BARAT;KOTA MATARAM;00119401;YAYASAN PENDIDIKAN EKSEKUTIP KOMPUTER;038245032022;1286769;Granted;;406.95;406.95;25;36.9897;02549681-000SU/0620222027;0001;HT 01 BERGERAK SEKITAR JALAN ISMAIL MARZUKI NO. 20;JALAN ISMAIL MARZUKI NO. 20;-8.59152778;116.1164;24/03/2022;23/03/2027;;;;;KOTA MATARAM;Balai Monitor SFR Kelas II Mataram;UHF;5. Tetap, Bergerak, Marabahaya (300 – 430 MHz)
Land Mobile (private);Standard;JALAN TERUSAN BUNG HATTA NO.107 KELURAHAN KARANG BARU, KOTA MATARAM, SELAPRANG, NUSA TENGGARA BARAT;NUSA TENGGARA BARAT;KOTA MATARAM;00108359;CATUR MITRA SEJATI SENTOSA, PT.;037760032022;1276469;Granted;;350.35;350.35;25;36.9897;02545876-000SU/0620222027;0001;HT.01 BEREGERAK SEKITAR JL.TERUSAN BUNG HATTA;JALAN TERUSAN BUNG HATTA NO.107 KELURAHAN KARANG BARU;-8.568;116.11788889;16/03/2022;15/03/2027;;;;;KOTA MATARAM;Balai Monitor SFR Kelas II Mataram;UHF;5. Tetap, Bergerak, Marabahaya (300 – 430 MHz)
Land Mobile (private);Standard;JALAN UDAYANA NO. 16 MATARAM, KOTA MATARAM, SELAPRANG, NUSA TENGGARA BARAT;NUSA TENGGARA BARAT;KOTA MATARAM;00104501;PP PROPERTI TBK. (PRIME PARK HOTEL BANDUNG), PT.;033124122021;1264943;Granted;;352.75;352.75;25;36.9897;02541914-000SU/0620222027;0002;HT 02 - 10 BERGERAK SEKITAR  JALAN UDAYANA NO. 16 MATARAM;JALAN UDAYANA NO. 16 MATARAM;-8.57612222;116.10251944;23/02/2022;22/02/2027;;;;;KOTA MATARAM;Balai Monitor SFR Kelas II Mataram;UHF;5. Tetap, Bergerak, Marabahaya (300 – 430 MHz)
Land Mobile (private);Standard;JALAN PALAPA I NO.16 B MATARAM, KOTA MATARAM, CAKRANEGARA, NUSA TENGGARA BARAT;NUSA TENGGARA BARAT;KOTA MATARAM;00119121;MITRA GRANDE SUKSES, PT.;035029012022;1236529;Granted;;150.6;150.6;25;36.9897;02524014-000SU/0620222027;0002;HT 02 - 4 BERGERAK SEKITAR  JALAN PALAPA I NO.16 B MATARAM;JALAN PALAPA I NO.16 B MATARAM;-8.58891667;116.12072222;24/01/2022;23/01/2027;;;;;KOTA MATARAM;Balai Monitor SFR Kelas II Mataram;VHF;3. Komrat VHF, Instanssi Pemerintah/Badan Usaha Keperluan Publik, Maritim VHF (137 - 174 MHz)
Land Mobile (private);Standard;JALAN SANDUBAYA RUKO NOMOR 9, KOTA MATARAM, SANDUBAYA, NUSA TENGGARA BARAT;NUSA TENGGARA BARAT;KOTA MATARAM;00118716;LOMBOK CAHAYA BANGUNAN PERKASA, PT.;038867112021;1198060;Granted;;409.75;409.75;25;36.9897;02498856-000SU/0620212026;0001;HT 01 BERGERAK SEKITAR JALAN SANDUBAYA RUKO NOMOR 9;JALAN SANDUBAYA RUKO NOMOR 9;-8.592;116.14908333;10/11/2021;09/11/2026;;;;;KOTA MATARAM;Balai Monitor SFR Kelas II Mataram;UHF;5. Tetap, Bergerak, Marabahaya (300 – 430 MHz)
Land Mobile (private);Standard;BANDARA PRAYA MATARAM, KOTA MATARAM, SELAPRANG, NUSA TENGGARA BARAT;NUSA TENGGARA BARAT;KOTA MATARAM;00102945;PRATHITA TITIANNUSANTARA, PT.;032359122021;1213094;Granted;;167.35;167.35;16;36.9897;02508197-000SU/0620212026;0002;HT.02-05 BERGERAK SEKITAR BANDARA PRAYA MATARAM;BANDARA PRAYA MATARAM;-8.56194444;116.09944444;09/12/2021;08/12/2026;;;;;KOTA MATARAM;Balai Monitor SFR Kelas II Mataram;VHF;3. Komrat VHF, Instanssi Pemerintah/Badan Usaha Keperluan Publik, Maritim VHF (137 - 174 MHz)
Land Mobile (private);Standard;JALAN GUNUNG RINJANI NO. 2 MAT, KOTA MATARAM, SELAPRANG, NUSA TENGGARA BARAT;NUSA TENGGARA BARAT;KOTA MATARAM;00118833;BADAN PUSAT STATISTIK PROVINSI NUSA TENGGARA BARAT;030072112021;1201304;Granted;;167.2;167.2;25;36.9897;02500745-000SU/0620212026;0001;HT 01 BERGERAK SEKITAR JALAN GUNUNG RINJANI NO. 2 MAT;JALAN GUNUNG RINJANI NO. 2 MAT;-8.58136111;116.09783333;17/11/2021;16/11/2026;;;;;KOTA MATARAM;Balai Monitor SFR Kelas II Mataram;VHF;3. Komrat VHF, Instanssi Pemerintah/Badan Usaha Keperluan Publik, Maritim VHF (137 - 174 MHz)
Land Mobile (private);Standard;JALAN MAJAPAHIT NO. 46 MATARAM, KOTA MATARAM, SEKARBELA, NUSA TENGGARA BARAT;NUSA TENGGARA BARAT;KOTA MATARAM;00118603;PENGADILAN TINGGI NUSA TENGGARA BARAT;037654102021;1185818;Granted;;406.525;406.525;16;36.9897;02492488-000SU/0620212026;0002;HT 02 - 2 BERGERAK SEKITAR  JALAN MAJAPAHIT NO. 46 MATARAM;JALAN MAJAPAHIT NO. 46 MATARAM;-8.59312222;116.0977;19/10/2021;18/10/2026;;;;;KOTA MATARAM;Balai Monitor SFR Kelas II Mataram;UHF;5. Tetap, Bergerak, Marabahaya (300 – 430 MHz)
Land Mobile (private);Standard;JALAN GAJAHMADA JEMPONG BARU, KOTA MATARAM, MATARAM, NUSA TENGGARA BARAT;NUSA TENGGARA BARAT;KOTA MATARAM;00118712;CV. TRITUNGGAL MANDIRI ABADI;038851112021;1196489;Granted;;406.575;406.575;16;36.9897;02498324-000SU/0620212026;0001;HT 01 BERGERAK SEKITAR JALAN GAJAHMADA JEMPONG BARU;JALAN GAJAHMADA JEMPONG BARU;-8.60725;116.10041667;05/11/2021;04/11/2026;;;;;KOTA MATARAM;Balai Monitor SFR Kelas II Mataram;UHF;5. Tetap, Bergerak, Marabahaya (300 – 430 MHz)
Land Mobile (private);Standard;JALAN PEJANGGIK NO. 67 CAKRA, KOTA MATARAM, CAKRANEGARA, NUSA TENGGARA BARAT;NUSA TENGGARA BARAT;KOTA MATARAM;00118832;SEJAHTERA MANDIRI BERSAMA, PT.;030078112021;1201813;Granted;;167.3;167.3;25;36.9897;02501164-000SU/0620212026;0001;HT 01 BERGERAK SEKITAR JALAN PEJANGGIK NO. 67 CAKRA;JALAN PEJANGGIK NO. 67 CAKRA;-8.58722222;116.12611111;18/11/2021;17/11/2026;;;;;KOTA MATARAM;Balai Monitor SFR Kelas II Mataram;VHF;3. Komrat VHF, Instanssi Pemerintah/Badan Usaha Keperluan Publik, Maritim VHF (137 - 174 MHz)
Land Mobile (private);Standard;JALAN PANCAUSAHA NO 6 CILINAYA, KOTA MATARAM, CAKRANEGARA, NUSA TENGGARA BARAT;NUSA TENGGARA BARAT;KOTA MATARAM;00118534;CV. LIGHTHOUSE INFORMATIKA SOLUSINDO;036685102021;1183141;Granted;;409.7;409.7;25;36.9897;02491124-000SU/0620212026;0001;HT 01 BERGERAK SEKITAR JALAN PANCAUSAHA NO 6 CILINAYA;JALAN PANCAUSAHA NO 6 CILINAYA;-8.58905556;116.11862222;13/10/2021;12/10/2026;;;;;KOTA MATARAM;Balai Monitor SFR Kelas II Mataram;UHF;5. Tetap, Bergerak, Marabahaya (300 – 430 MHz)
Land Mobile (private);Standard;JALAN SRIWIJAYA NO. 24 CILINAYA KECAMATAN CAKRANEGARA, KOTA MATARAM, CAKRANEGARA, NUSA TENGGARA BARAT;NUSA TENGGARA BARAT;KOTA MATARAM;00102428;GARDA LINTAS SARANA, PT.;034897032021;1083250;Granted;;151.35;151.35;16;36.9897;02434615-000SU/0620212026;0001;HT. 01 BERGERAK DISEKITAR KECAMATAN CAKRANEGARA;JALAN SRIWIJAYA NO. 24 CILINAYA KECAMATAN CAKRANEGARA;-8.59391667;116.11911111;22/03/2021;21/03/2026;;;;;KOTA MATARAM;Balai Monitor SFR Kelas II Mataram;VHF;3. Komrat VHF, Instanssi Pemerintah/Badan Usaha Keperluan Publik, Maritim VHF (137 - 174 MHz)
Land Mobile (private);Standard;JALAN PERTANIAN NO. 6 KECAMATAN CAKRANEGARA, KOTA MATARAM, SANDUBAYA, NUSA TENGGARA BARAT;NUSA TENGGARA BARAT;KOTA MATARAM;00116888;SURYA INDAH CAKRAWALA, PT.;032665022021;1080215;Granted;;166.775;166.775;16;36.9897;02432021-000SU/0620212026;0001;HT. 01 BERGERAK DISEKITAR KECAMATAN CAKRANEGARA;JALAN PERTANIAN NO. 6 KECAMATAN CAKRANEGARA;-8.58473056;116.15077778;15/03/2021;14/03/2026;;;;;KOTA MATARAM;Balai Monitor SFR Kelas II Mataram;VHF;3. Komrat VHF, Instanssi Pemerintah/Badan Usaha Keperluan Publik, Maritim VHF (137 - 174 MHz)
Land Mobile (private);Standard;JALAN LANGKO NO. 21 - 23  KECAMATAN SELAPARANG, KOTA MATARAM, SELAPRANG, NUSA TENGGARA BARAT;NUSA TENGGARA BARAT;KOTA MATARAM;00108607;LANGKO ANUGRAH SEJAHTERA, PT.;034266032021;1079054;Granted;;354.85;354.85;16;36.9897;02431469-000SU/0620212026;0001;HT. 01 BERGERAK DISEKITAR KECAMATAN SELAPARANG;JALAN LANGKO NO. 21 - 23  KECAMATAN SELAPARANG;-8.58066667;116.09761111;13/03/2021;12/03/2026;;;;;KOTA MATARAM;Balai Monitor SFR Kelas II Mataram;UHF;5. Tetap, Bergerak, Marabahaya (300 – 430 MHz)
Land Mobile (private);Standard;JALAN MAJAPAHIT NO 10 MATARAM KELURAHAN PAGESANGAN BARAT, KOTA MATARAM, MATARAM, NUSA TENGGARA BARAT;NUSA TENGGARA BARAT;KOTA MATARAM;00117352;GRHA ULTIMA MEDIKA, PT.;030915012021;1056584;Granted;;150.95;150.95;16;36.9897;02416717-000SU/0620212026;0002;HT. 02 - 04 BERGERAK DISEKITAR KECAMATAN MATARAM;JALAN MAJAPAHIT NO 10 MATARAM KELURAHAN PAGESANGAN BARAT;-8.59416667;116.09833333;24/01/2021;23/01/2026;;;;;KOTA MATARAM;Balai Monitor SFR Kelas II Mataram;VHF;3. Komrat VHF, Instanssi Pemerintah/Badan Usaha Keperluan Publik, Maritim VHF (137 - 174 MHz)
Land Mobile (private);Standard;JALAN LANGKO NO. 2 - 4 MATARAM KELURAHAN DASAN AGUNG, KOTA MATARAM, SELAPRANG, NUSA TENGGARA BARAT;NUSA TENGGARA BARAT;KOTA MATARAM;00110120;BAHAGIA BANGUNNUSA, PT.;038740022020;0851289;Granted;;159.775;164.75;16;36.9897;02243140-000SU/0620202025;0002;HT. 01-40 BERGERAK DISEKITAR KECAMATAN CAKRANEGARA;JALAN LANGKO NO. 2 - 4 MATARAM KELURAHAN DASAN AGUNG;-8.57972222;116.10183611;10/02/2020;09/02/2030;;;;;KOTA MATARAM;Balai Monitor SFR Kelas II Mataram;VHF;3. Komrat VHF, Instanssi Pemerintah/Badan Usaha Keperluan Publik, Maritim VHF (137 - 174 MHz)
Land Mobile (private);Standard;JALAN JEND SUDIRMAN  NO. 40 MATARAM KELURAHAN SELAPARANG, KOTA MATARAM, SELAPRANG, NUSA TENGGARA BARAT;NUSA TENGGARA BARAT;KOTA MATARAM;00115429;DINAS PERHUBUNGAN KOTA MATARAM;039226102019;0776244;Granted;;162.725;167.75;16;36.9897;02157396-000SU/0620192024;0002;HT. 01 - 40 BERGERAK DISEKITAR KEC. CAKRANEGARA;JALAN JEND SUDIRMAN  NO. 40 MATARAM KELURAHAN SELAPARANG;-8.56484444;116.12194444;09/10/2019;08/10/2029;;;;;KOTA MATARAM;Balai Monitor SFR Kelas II Mataram;VHF;3. Komrat VHF, Instanssi Pemerintah/Badan Usaha Keperluan Publik, Maritim VHF (137 - 174 MHz)
Land Mobile (private);Standard;JALAN JENDERAL SUDIRMAN NO. 81 REMBIGA KECAMATAN SELAPARANG, KOTA MATARAM, SELAPRANG, NUSA TENGGARA BARAT;NUSA TENGGARA BARAT;KOTA MATARAM;00115601;BALIFOAM NUSAMEGAH, PT.;032188112019;0804004;Granted;;150.325;150.325;16;36.9897;02190534-000SU/0620192024;0002;HT. 02 BERGERAK DISEKITAR KECAMATAN SELAPARANG;JALAN JENDERAL SUDIRMAN NO. 81 REMBIGA KECAMATAN SELAPARANG;-8.56338889;116.11886111;11/11/2019;10/11/2029;;;;;KOTA MATARAM;Balai Monitor SFR Kelas II Mataram;VHF;3. Komrat VHF, Instanssi Pemerintah/Badan Usaha Keperluan Publik, Maritim VHF (137 - 174 MHz)
Land Mobile (private);Standard;JL.RAYA AA GDE NGURAH NO. 9, KOTA MATARAM, SANDUBAYA, NUSA TENGGARA BARAT;NUSA TENGGARA BARAT;KOTA MATARAM;00103857;LOTTE SHOPPING INDONESIA, PT.;033290112019;0820777;Granted;;353.6;353.6;16;36.9897;02212929-000SU/0620192024;0002;HT. 02-15 BERGERAK JL.RAYA AA GDE NGURAH NO. 9;JL.RAYA AA GDE NGURAH NO. 9;-8.5995;116.12786111;22/11/2019;21/11/2029;;;;;KOTA MATARAM;Balai Monitor SFR Kelas II Mataram;UHF;5. Tetap, Bergerak, Marabahaya (300 – 430 MHz)
Land Mobile (private);Standard;JL. PANCA USAHA NO. 11, KOTA MATARAM, CAKRANEGARA, NUSA TENGGARA BARAT;NUSA TENGGARA BARAT;KOTA MATARAM;00101075;SURYA CEMERLANG SEJAHTERA, PT.;037558032016;0364450;Granted;;152.9;157.85;16;36.99;;0002;HT. 01-40 BERGERAK SEKIATR LOMBOK RAYA;JL. PANCA USAHA NO. 11;-8.59;116.11833333;22/04/2016;21/04/2026;;;;;KOTA MATARAM;Balai Monitor SFR Kelas II Mataram;VHF;3. Komrat VHF, Instanssi Pemerintah/Badan Usaha Keperluan Publik, Maritim VHF (137 - 174 MHz)
Land Mobile (private);Standard;JALAN BUNG KARNO NO. 7 MATARAM, KOTA MATARAM, CAKRANEGARA, NUSA TENGGARA BARAT;NUSA TENGGARA BARAT;KOTA MATARAM;00114880;BINTANG GRANA DARMA, PT.;038240092019;0770017;Granted;;153.125;153.125;16;36.9897;02151599-000SU/0620192024;0002;HT. 02-10 BERGERAK DISEKITAR KECAMATAN CAKRANEGARA;JALAN BUNG KARNO NO. 7 MATARAM;-8.58921389;116.11800833;30/09/2019;29/09/2029;;;;;KOTA MATARAM;Balai Monitor SFR Kelas II Mataram;VHF;3. Komrat VHF, Instanssi Pemerintah/Badan Usaha Keperluan Publik, Maritim VHF (137 - 174 MHz)
Broadcast;FM;KOTA MATARAM;NUSA TENGGARA BARAT;KOTA MATARAM;1035;LEMBAGA PENYIARAN PUBLIK RADIO REPUBLIK INDONESIA;010334012021;1055368;Granted;;94.3;;300;72.2897;02415821-000SU/2020212026;0001;LPP RRI MATARAM 94.3 MHz;KOMPLEK PEMANCAR JL. MAJAPAHIT, TAMAN SARI;-8.57938333;116.08264722;21/01/2021;20/01/2026;;;;;KOTA MATARAM;Balai Monitor SFR Kelas II Mataram;VHF;1. Radio FM, DRM  (87 – 108 MHz)
Land Mobile (private);Standard;JL.BY PASS BIL PRAYA LOMBOK, KOTA MATARAM, SELAPRANG, NUSA TENGGARA BARAT;NUSA TENGGARA BARAT;KOTA MATARAM;00102945;PRATHITA TITIANNUSANTARA, PT.;033995082019;0736542;Granted;;162.7;162.7;16;36.9897;02129949-000SU/0620192024;0002;HT.02-03 BERGERAK SEKITAR JL.BY PASS BIL PRAYA LOMBOK;JL.BY PASS BIL PRAYA LOMBOK;-8.56194444;116.09944444;12/08/2019;11/08/2034;;;;;KOTA MATARAM;Balai Monitor SFR Kelas II Mataram;VHF;3. Komrat VHF, Instanssi Pemerintah/Badan Usaha Keperluan Publik, Maritim VHF (137 - 174 MHz)
Land Mobile (private);Standard;Jalan Sriwijaya No. 333, KOTA MATARAM, MATARAM, NUSA TENGGARA BARAT;NUSA TENGGARA BARAT;KOTA MATARAM;00110045;NUSANTARA SEJAHTERA RAYA TBK, PT.;039642032018;0588899;Granted;;353.35;353.35;16;36.9897;02023936-000SU/0620182023;0002;HT. 02-04 BIOSKOP LEM XXI MATARAM;Jalan Sriwijaya No. 333;-8.59275;116.10472222;16/04/2018;15/04/2028;;;;;KOTA MATARAM;Balai Monitor SFR Kelas II Mataram;UHF;5. Tetap, Bergerak, Marabahaya (300 – 430 MHz)
Broadcast;FM;KOTA MATARAM;NUSA TENGGARA BARAT;KOTA MATARAM;1035;LEMBAGA PENYIARAN PUBLIK RADIO REPUBLIK INDONESIA;019332092020;0954554;Granted;;104.2;;300;72.2897;02335095-000SU/2020202025;0001;LPP RRI MATARAM 104.2 MHz;KOMPLEK PEMANCAR Jl. MAJAPAHIT, TAMAN SARI,;-8.57938333;116.08264722;07/09/2020;06/09/2025;;;;;KOTA MATARAM;Balai Monitor SFR Kelas II Mataram;VHF;1. Radio FM, DRM  (87 – 108 MHz)
Land Mobile (private);Standard;JL. PONDOK INDAH LINGKUNGAN PEKANDELAN JEMPONG BARU, KOTA MATARAM, SEKARBELA, NUSA TENGGARA BARAT;NUSA TENGGARA BARAT;KOTA MATARAM;00114129;SD ISLAM TERPADU ANAK SHOLEH 2 MATARAM;030149112018;0663509;Granted;;160.575;160.575;16;36.9897;02066089-000SU/0620182023;0001;HT. 01 BERGERAK SEKITAR JL. PONDOK INDAH LINGKUNGAN;JL. PONDOK INDAH LINGKUNGAN PEKANDELAN JEMPONG BARU;-8.62277778;116.09472222;03/12/2018;02/12/2028;;;;;KOTA MATARAM;Balai Monitor SFR Kelas II Mataram;VHF;3. Komrat VHF, Instanssi Pemerintah/Badan Usaha Keperluan Publik, Maritim VHF (137 - 174 MHz)
Land Mobile (private);Standard;JALAN PROKLAMASI MANDALIKA SANDUBAYA, KOTA MATARAM, SANDUBAYA, NUSA TENGGARA BARAT;NUSA TENGGARA BARAT;KOTA MATARAM;00114383;CIPTA PERISAI MANDIRI, PT.;033291012019;0680138;Granted;;160.35;160.35;16;36.9897;02082965-000SU/0620192024;0001;HT. 01 BERGERAK SEKITARJALAN PROKLAMASI MANDALIKA SANDUBAYA;JALAN PROKLAMASI MANDALIKA SANDUBAYA;-8.59645;116.15419722;06/02/2019;05/02/2029;;;;;KOTA MATARAM;Balai Monitor SFR Kelas II Mataram;VHF;3. Komrat VHF, Instanssi Pemerintah/Badan Usaha Keperluan Publik, Maritim VHF (137 - 174 MHz)
Land Mobile (private);Standard;JALAN HOS COKROAMINOTO NO. 25 A MATARAM, KOTA MATARAM, SELAPRANG, NUSA TENGGARA BARAT;NUSA TENGGARA BARAT;KOTA MATARAM;00114412;CV. MATRIX COMPUTER;033788022019;0682442;Granted;;150.5;150.5;16;36.9897;02085634-000SU/0620192024;0002;HT. 02 - 05 BERGERAK SEKITAR JALAN HOS COKROAMINOTO NO. 25A;JALAN HOS COKROAMINOTO NO. 25 A MATARAM;-8.57833611;116.11166944;15/02/2019;14/02/2029;;;;;KOTA MATARAM;Balai Monitor SFR Kelas II Mataram;VHF;3. Komrat VHF, Instanssi Pemerintah/Badan Usaha Keperluan Publik, Maritim VHF (137 - 174 MHz)
Land Mobile (private);Standard;JALAN HOS COKROAMINOTO NO. 5 MATARAM, KOTA MATARAM, SELAPRANG, NUSA TENGGARA BARAT;NUSA TENGGARA BARAT;KOTA MATARAM;00104407;LAPAS PEREMPUAN MATARAM;033730022019;0682213;Granted;;168.375;168.375;16;36.9897;02085627-000SU/0620192024;0001;HT. 01 BERGERAK SEKITAR JALAN HOS COKROAMINOTO;JALAN HOS COKROAMINOTO NO. 5 MATARAM;-8.58127778;116.10888889;15/02/2019;14/02/2029;;;;;KOTA MATARAM;Balai Monitor SFR Kelas II Mataram;VHF;3. Komrat VHF, Instanssi Pemerintah/Badan Usaha Keperluan Publik, Maritim VHF (137 - 174 MHz)
Land Mobile (private);Standard;JL. MAJAPAHIT 10 C KEKALIK JAYA, KOTA MATARAM, SEKARBELA, NUSA TENGGARA BARAT;NUSA TENGGARA BARAT;KOTA MATARAM;00111669;PERMATA HATI MATARAM, PT.;030459082017;0483037;Granted;;155.35;155.35;16;36.9897;01951778-000SU/0620172022;0002;HT.2-3 RSIA PERMATA HATI;JL. MAJAPAHIT 10 C KEKALIK JAYA;-8.58530556;116.08802778;18/08/2017;16/08/2027;;;;;KOTA MATARAM;Balai Monitor SFR Kelas II Mataram;VHF;3. Komrat VHF, Instanssi Pemerintah/Badan Usaha Keperluan Publik, Maritim VHF (137 - 174 MHz)
Land Mobile (private);Standard;TRANSMART MATARAM JL. SELAPARANG, LINGKUNGAN SWETA TIMUR, KOTA MATARAM, CAKRANEGARA, NUSA TENGGARA BARAT;NUSA TENGGARA BARAT;KOTA MATARAM;00101091;TRANS RETAIL INDONESIA, PT.;037800052017;0436829;Granted;;354.925;354.925;16;36.9897;01942634-000SU/0620172022;0002;HT.2-30 SEKITAR TRANSMART MATARAM;TRANSMART MATARAM JL. SELAPARANG, LINGKUNGAN SWETA TIMUR;-8.59027778;116.14583333;31/05/2017;29/05/2027;;;;;KOTA MATARAM;Balai Monitor SFR Kelas II Mataram;UHF;5. Tetap, Bergerak, Marabahaya (300 – 430 MHz)
Land Mobile (private);Standard;Jl. Selaparang Cakranegara RT.005 RW.002 Kelurahan Mayura Kecamatan Cakranegara, KOTA MATARAM, CAKRANEGARA, NUSA TENGGARA BARAT;NUSA TENGGARA BARAT;KOTA MATARAM;00101091;TRANS RETAIL INDONESIA, PT.;038427062017;0438262;Granted;;353.45;353.45;16;36.9897;01945020-000SU/0620172022;0001;HT. 01 Bergerak di Mall Transmart Mataram;Jl. Selaparang Cakranegara RT.005 RW.002 Kelurahan Mayura Kecamatan Cakranegara;-8.59025;116.14586111;14/06/2017;12/06/2027;;;;;KOTA MATARAM;Balai Monitor SFR Kelas II Mataram;UHF;5. Tetap, Bergerak, Marabahaya (300 – 430 MHz)
Land Mobile (private);Standard;SIRWIJAYA NO 333, KOTA MATARAM, MATARAM, NUSA TENGGARA BARAT;NUSA TENGGARA BARAT;KOTA MATARAM;00101197;MATAHARI PUTRA PRIMA;032735112016;0407728;Granted;;170.875;170.875;16;36.99;01916159-000SU/0620162021;0001;HT. 01 BERGERAK SEKITAR HYPERMART EPICENTRUM;SIRWIJAYA NO 333;-8.59255556;116.10519444;21/12/2016;20/12/2026;;;;;KOTA MATARAM;Balai Monitor SFR Kelas II Mataram;VHF;3. Komrat VHF, Instanssi Pemerintah/Badan Usaha Keperluan Publik, Maritim VHF (137 - 174 MHz)
Land Mobile (private);Standard;JL. SWASEMBADA NO.39 RT.011 RW.196 KEKALIK JAYA, KOTA MATARAM, SEKARBELA, NUSA TENGGARA BARAT;NUSA TENGGARA BARAT;KOTA MATARAM;00110403;CV. ANMELL JARINGNUSA;031152092016;0390669;Granted;;172.275;172.275;16;36.9897;01900167-000SU/0620162021;0002;HT.2-3 ANMELL JARINGNUSA;JL. SWASEMBADA NO.39 RT.011 RW.196 KEKALIK JAYA;-8.59433611;116.08965;10/10/2016;09/10/2026;;;;;KOTA MATARAM;Balai Monitor SFR Kelas II Mataram;VHF;3. Komrat VHF, Instanssi Pemerintah/Badan Usaha Keperluan Publik, Maritim VHF (137 - 174 MHz)
Land Mobile (private);Standard;JL. PANCA USAHA NO.1 KRL. CILINAYA, KOTA MATARAM, CAKRANEGARA, NUSA TENGGARA BARAT;NUSA TENGGARA BARAT;KOTA MATARAM;00110242;BRILLIAN PANCA KENCANA / ASTON INN MARATAM, PT.;030514082016;0386190;Granted;;171.75;171.75;16;36.99;01896551-000SU/0620162021;0002;HT.2-10 ASTON INN MATARAM;JL. PANCA USAHA NO.1 KRL. CILINAYA;-8.58827778;116.11780556;20/09/2016;19/09/2026;;;;;KOTA MATARAM;Balai Monitor SFR Kelas II Mataram;VHF;3. Komrat VHF, Instanssi Pemerintah/Badan Usaha Keperluan Publik, Maritim VHF (137 - 174 MHz)
Land Mobile (private);Standard;JL. UDAYANA NO. 20, KOTA MATARAM, SELAPARANG, NUSA TENGGARA BARAT;NUSA TENGGARA BARAT;KOTA MATARAM;00109067;REGANDA PERSADA GROUP, PT.;036263012016;0352169;Granted;;151.925;151.925;16;36.99;01853165-000SU/0620162021;0002;HT. 02- 05 GRAND MADIUN;JL. UDAYANA NO. 20;-8.57536111;116.10277778;26/01/2016;25/01/2026;;;;;KOTA MATARAM;Balai Monitor SFR Kelas II Mataram;VHF;3. Komrat VHF, Instanssi Pemerintah/Badan Usaha Keperluan Publik, Maritim VHF (137 - 174 MHz)
Land Mobile (private);Standard;JL. JENDERAL SUDIRMAN NO. 40, KOTA MATARAM, SELAPARANG, NUSA TENGGARA BARAT;NUSA TENGGARA BARAT;KOTA MATARAM;00109333;MATARAM ANDALAS SEMESTA;036875022016;0357501;Granted;;151.825;151.825;16;36.9897;01857632-000SU/0620162021;0002;HT. 02-13 BERGERAK SEKITAR JL. JEND. SUDIRMAN;JL. JENDERAL SUDIRMAN NO. 40;-8.56461111;116.12102778;22/02/2016;21/02/2026;;;;;KOTA MATARAM;Balai Monitor SFR Kelas II Mataram;VHF;3. Komrat VHF, Instanssi Pemerintah/Badan Usaha Keperluan Publik, Maritim VHF (137 - 174 MHz)
Land Mobile (private);Standard;JL. SRIWIJAYA NO.333 KEL. LOMOK, KOTA MATARAM, NUSA TENGGARA BARAT, MATARA;NUSA TENGGARA BARAT;KOTA MATARAM;00103683;ASPIRASI HIDUP INDONESIA TBK., PT.;034776092015;0207970;Granted;;170.525;170.525;16;36.9897;01830072-000SU/0620152020;0002;HT.01 - HT.10 BERGERAK SEKITAR JL.SRIWIJAYA LOMBOK /1;JL. SRIWIJAYA NO.333 KEL. LOMOK;-8.59477778;116.10386111;15/09/2015;14/09/2025;;;;;KOTA MATARAM;Balai Monitor SFR Kelas II Mataram;VHF;3. Komrat VHF, Instanssi Pemerintah/Badan Usaha Keperluan Publik, Maritim VHF (137 - 174 MHz)
Land Mobile (private);Standard;JL. SRIWIJAYA NO. 38, KOTA MATARAM, NUSA TENGGARA BARAT, CAKRANEGAR;NUSA TENGGARA BARAT;KOTA MATARAM;00108149;GOLDEN PALM SURYATAMA (GOLDEN PALACE HOTEL LOMBOK), PT.;034435072015;0201828;Granted;;150.875;150.875;16;36.9897;01822977-000SU/0620152020;0001;HT. 01-20 BERGERAK SEKITAR JL. SRIWIJAYA NO. 38;JL. SRIWIJAYA NO. 38;-8.59436111;116.121975;31/07/2015;30/07/2025;;;;;KOTA MATARAM;Balai Monitor SFR Kelas II Mataram;VHF;3. Komrat VHF, Instanssi Pemerintah/Badan Usaha Keperluan Publik, Maritim VHF (137 - 174 MHz)
Land Mobile (private);Standard;BERGERAK SEKITAR JL. SRIWIJAYA NO. 95;NUSA TENGGARA BARAT;KOTA MATARAM;00105280;MATARAM CITRA NUSA, CV.;031755112014;0166467;Granted;;170.575;170.575;16;36.9897;01793180-000SU/0620152020;0001;0001/HT.01-06 BERGERAK SEKITAR JL. SRIWIJAYA NO. 95;BERGERAK SEKITAR JL. SRIWIJAYA NO. 95;-8.59513889;116.11605556;18/02/2015;17/02/2025;;;;;KOTA MATARAM;Balai Monitor SFR Kelas II Mataram;VHF;3. Komrat VHF, Instanssi Pemerintah/Badan Usaha Keperluan Publik, Maritim VHF (137 - 174 MHz)
Broadcast;FM;KOTA MATARAM;NUSA TENGGARA BARAT;KOTA MATARAM;5846;RADIO SUTA REMAJA, PT.;010589072015;0201557;Granted;;91.6;;300;66;01823865-000SU/2020152020;0001;SUTRA BANDAR DANGDUT LOMBOK;JL. LINGKAR SELATAN NO. 369, KEL. JEMPONG BARU;-8.61888889;116.095;03/08/2015;02/08/2025;;;;;KOTA MATARAM;Balai Monitor SFR Kelas II Mataram;VHF;1. Radio FM, DRM  (87 – 108 MHz)
Land Mobile (private);Standard;JALAN PRABU RANGKASARI DASAN CERMEN, KOTA MATARAM, SANDUBAYA, NUSA TENGGARA BARAT;NUSA TENGGARA BARAT;KOTA MATARAM;00119134;RUMAH SAKIT UMUM DAERAH PROVINSI NTB;035707022022;1247484;Granted;;430.25;434.25;25;40;02531000-000SU/0620222027;0002;HT. 01-40 BERGERAK DISEKITAR KECAMATAN SANDUBAYA;JALAN PRABU RANGKASARI DASAN CERMEN;-8.60791667;116.13211111;03/02/2022;02/02/2027;;;;;KOTA MATARAM;Balai Monitor SFR Kelas II Mataram;UHF;6. Komrad UHF (430 – 460 MHz)
Broadcast;FM;KOTA MATARAM;NUSA TENGGARA BARAT;KOTA MATARAM;6808;RADIO SWARA MAYAPESONA INDAH, PT.;018339062020;0905770;Granted;;98.3;;300;63.0309;02292371-000SU/2020202025;0001;Mayapesona FM;Jl. Tuan Guru Haji Faisal No.23, Bertais, Cakranegara, Mataram, NTB 83234;-8.59366667;116.15472222;12/06/2020;11/06/2025;;;;;KOTA MATARAM;Balai Monitor SFR Kelas II Mataram;VHF;1. Radio FM, DRM  (87 – 108 MHz)
Broadcast;FM;KOTA MATARAM;NUSA TENGGARA BARAT;KOTA MATARAM;8252;RADIO CITRASUARA NUANSA LOMBOK, PT.;018886072020;0930492;Granted;;95.1;;300;64.0309;02311666-000SU/2020202025;0001;CNL Radio Action;JL. HARIMAU NO. 20, MATARAM TIMUR,;-8.583;116.10952778;27/07/2020;26/07/2025;;;;;KOTA MATARAM;Balai Monitor SFR Kelas II Mataram;VHF;1. Radio FM, DRM  (87 – 108 MHz)
Land Mobile (private);Standard;JL. LANGKO 83 AMPENAN, DESA TAMANSARI, KELURAHAN AMPENAN, MATARAM, NTB,KOTA MATARAM,AMPENAN,NUSA TENGGARA BARAT,TAMAN SARI;NUSA TENGGARA BARAT;KOTA MATARAM;1035;LEMBAGA PENYIARAN PUBLIK RADIO REPUBLIK INDONESIA;034208032023;1805494/1;Granted;;348.075;;150;43.831;02693245-000SU/2620232028;0001;LPP RRI MATARAM;JL. LANGKO 83 AMPENAN, DESA TAMANSARI, KELURAHAN AMPENAN, MATARAM, NTB;-8.57833333;116.08519444;09/07/2024;17/04/2028;;;;;KOTA MATARAM;Balai Monitor SFR Kelas II Mataram;UHF;5. Tetap, Bergerak, Marabahaya (300 – 430 MHz)
Land Mobile (private);Standard;JALAN DR. R SOEDJONO LINGKAR SELATAN KECAMATAN SEKARBELA, KOTA MATARAM, SEKARBELA, NUSA TENGGARA BARAT;NUSA TENGGARA BARAT;KOTA MATARAM;00105194;BADAN PENGELOLA ASRAMA HAJI;037930052021;1111849;Granted;;173.65;173.65;16;45.9794;02451371-000SU/2620212026;0001;BS. UPT ASRAMA HAJI EMBARKASI LOMBOOK;JALAN DR. R SOEDJONO LINGKAR SELATAN KECAMATAN SEKARBELA;-8.62072222;116.0815;18/05/2021;17/05/2026;;;;;KOTA MATARAM;Balai Monitor SFR Kelas II Mataram;VHF;3. Komrat VHF, Instanssi Pemerintah/Badan Usaha Keperluan Publik, Maritim VHF (137 - 174 MHz)
Land Mobile (private);Standard;JL SANDUBAYA BERTAIS, KOTA MATARAM, SANDUBAYA, NUSA TENGGARA BARAT;NUSA TENGGARA BARAT;KOTA MATARAM;00103494;PLN (PERSERO), PT.;037618102021;1185257;Granted;;350.25;355.25;16;45.9794;02492477-000SU/2620212026;00011;BS. 11 GI NEW MATARAM (19);JL SANDUBAYA BERTAIS;-8.59224722;116.16628056;19/10/2021;18/10/2026;;;;;KOTA MATARAM;Balai Monitor SFR Kelas II Mataram;UHF;5. Tetap, Bergerak, Marabahaya (300 – 430 MHz)
